License Number,Community Name, Street Address,City,Zip Code,Case Number,Longitude,Latitude,First Inspection Date,Next Inspection Date,Inspection Frequency,Compliant,Unit Count,Units Inspected,Average Violations Per Unit,Severity Index,No Violations Observed,Infested Units Percentage,Units with Mold,Analysis Rating,Location
62427,The Veridian At Silver Spring Metro,1133 East West Hwy,Silver Spring,20910,154466,-77.02778325,38.9893465,5/14/2019,,3,1,457,106,0.17,0.29,87,0,0,compliant,"(38.9893, -77.0278)"
84793,Bainbridge Bethesda,4918 St Elmo Ave,Bethesda,20814,149950,-77.09753744,38.9883591,1/14/2020,,3,1,200,47,0.25,0.27,40,0,0,compliant,"(38.9884, -77.0975)"
18225,Brooke Park Apartments,6301 MacArthur Blvd,Bethesda,20816-3215,146561,0,0,9/27/2018,,1,1,18,16,6.56,1.98,0,0.06,0.25,troubled,"(0.0, 0.0)"
42887,Residences At Capital Crescent Trail,5333 Westbard Ave,Bethesda,20816,154239,-77.1065937,38.9618359,4/19/2019,,3,1,258,59,0.67,0.84,27,0,0,compliant,"(38.9618, -77.1066)"
65240,Barclay Development Corp,4716 Bradley Blvd,Chevy Chase,20815,154457,-77.09329101,38.97760488,4/22/2019,,3,1,76,20,1.15,1.38,4,0,0,compliant,"(38.9776, -77.0933)"
116905,The Centre at Silver Spring,3310 Teagarden Cir,Silver Spring,20904,,-76.94449538,39.08164815,,,3,0,254,,,,,,,TBD,"(39.0816, -76.9445)"
90329,The Pearl,180 High Park Ln,Silver Spring,20910,,-77.03362371,38.99124085,,,3,0,284,,,,,,,compliant,"(38.9912, -77.0336)"
39309,Churchill Senior Living,21000 Father Hurley Blvd,Germantown,20874,153703,-77.27383566,39.19048627,3/29/2019,,3,1,121,15,1.2,0.43,12,0,0,compliant,"(39.1905, -77.2738)"
115288,Axis at Shady Grove Apartments,9305 Corporate Blvd,Rockville,20850,,-77.19223804,39.10782977,,,3,0,366,,,,,,,compliant,"(39.1078, -77.1922)"
92761,Hanover Shady Grove Apartments,9305 Corporate Blvd,Rockville,20850,,-77.19223804,39.10782977,,,3,0,366,,,,,,,compliant,"(39.1078, -77.1922)"
17165,Strathmore House,3004 Bel Pre Rd,Silver Spring,20906,154241,-77.06127806,39.09098539,5/29/2019,,3,1,210,44,1,0.91,24,0.09,0,compliant,"(39.091, -77.0613)"
17157,Nob Hill Apartments,9120 Piney Branch Rd,Silver Spring,20903,146183,-76.98916514,39.0008628,4/4/2018,,3,1,396,99,1.67,1.48,19,0.03,0.05,compliant,"(39.0009, -76.9892)"
112472,Woodvale,13831 Castle Blvd,Silver Spring,20904,,-76.94411233,39.082255,,,3,0,375,,,,,,,TBD,"(39.0823, -76.9441)"
94100,The Henri,11870 Grand Park Ave,Rockville,20852,,-77.11736286,39.05037469,,,3,0,272,,,,,,,compliant,"(39.0504, -77.1174)"
112829,"STEWART LANE, 11550",11550 Stewart Ln,Silver Spring,20904,,0,0,,,1,0,591,,,,,,,TBD,"(0.0, 0.0)"
17199,Holly Hall,10100 New Hampshire Ave,Silver Spring,20903,154221,-76.97674977,39.02046675,5/14/2019,,3,1,96,24,0.62,0.77,15,0.04,0,compliant,"(39.0205, -76.9767)"
115234,"Silver Spring Avenue, 626",626 Silver Spring Ave,Silver Spring,20910,,-77.01510414,38.99173756,,,2,0,4,,,,,,,TBD,"(38.9917, -77.0151)"
115586,MHP Hillbrooke Towers LLC,515 Thayer Ave,Silver Spring,20910,,-77.01347203,38.99396178,,,2,0,55,,,,,,,TBD,"(38.994, -77.0135)"
17372,Village Square Wheaton,12011 Veirs Mill Rd,Silver Spring,20906,152882,-77.07594576,39.05371152,3/19/2019,,2,1,162,40,1.8,1.82,7,0.05,0,at-risk,"(39.0537, -77.0759)"
116079,Valor Apartments,3411 Gateshead Manor Way,Silver Spring,20904,,-76.936297,39.0785039,,,3,0,261,,,,,,,TBD,"(39.0785, -76.9363)"
117113,"Garland Avenue, 8002",8002 Garland Ave,Takoma Park,20912,,-76.99898672,38.9896765,,,1,0,3,,,,,,,TBD,"(38.9897, -76.999)"
17605,"Bonifant Street, 943",943 Bonifant St,Silver Spring,20910,143628,-77.02560013,38.9939982,9/22/2017,,1,0,3,3,3.66,1.09,1,0,0.33,troubled,"(38.994, -77.0256)"
98966,The Montgomery,6425 Rock Forest Dr,Bethesda,20817,149292,-77.12808643,39.02988854,10/4/2018,,3,1,386,94,0.35,0.8,60,0,0.01,compliant,"(39.0299, -77.1281)"
17002,"Nolte Avenue, 8212",8212 Nolte Ave,Silver Spring,20910,154222,-77.01353875,38.99323142,4/17/2019,,2,1,2,3,1,2.33,0,0,0,at-risk,"(38.9932, -77.0135)"
17169,Battery Lane Apartments,4887 Battery Ln,Bethesda,20814,147561,-77.09888586,38.9925727,6/21/2018,,2,1,86,22,1.18,1.78,6,0,0.04,at-risk,"(38.9926, -77.0989)"
17349,"Quebec Terrace, 1033-1045",1033 Quebec Ter,Silver Spring,20903,137996,-76.98641055,39.00040869,12/6/2016,,1,0,28,28,6.64,1.85,0,0.21,0.28,troubled,"(39.0004, -76.9864)"
17280,Sligo Terrace Apartments,8800 Manchester Rd,Silver Spring,20901,154279,-77.01026067,39.0003651,4/12/2019,,2,1,54,54,2.09,1.27,11,0.07,0.01,at-risk,"(39.0004, -77.0103)"
28784,"Grand, The",5801 Nicholson Ln,Rockville,20852,154496,-77.11391794,39.04552334,5/8/2019,,3,1,552,133,0.58,0.69,89,0,0,compliant,"(39.0455, -77.1139)"
96500,Towne Crest Apartments,17500 Towne Crest Dr,Gaithersburg,20877,154272,-77.17452744,39.14573888,4/17/2019,,3,1,107,25,0.16,0.24,21,0,0,compliant,"(39.1457, -77.1745)"
116707,The Morgan,12000 Chase Crossing Cir,Rockville,20852,,-77.12021401,39.05456657,,,2,0,127,,,,,,,TBD,"(39.0546, -77.1202)"
112729,James welu,811 Thayer Ave,Silver Spring,20910,,-77.02304202,38.99336172,,,1,0,3,,,,,,,TBD,"(38.9934, -77.023)"
88140,Mallory Square,15251 Siesta Key Way,Rockville,20850,154461,-77.194325,39.10573382,5/1/2019,,3,1,365,82,0.36,0.38,65,0,0,compliant,"(39.1057, -77.1943)"
115402,"Silver Spring Avenue, 616",616 Silver Spring Ave,Silver Spring,20910,,-77.01387628,38.99183934,,,1,0,4,,,,,,,TBD,"(38.9918, -77.0139)"
112955,Solaire 8250,8250 Georgia Ave,Silver Spring,20904,,-76.94449538,39.08164815,,,3,0,338,,,,,,,TBD,"(39.0816, -76.9445)"
117270,The Parc at Woodlake,14001 Castle Blvd,Silver Spring,20904,,-76.94049802,39.08467226,,,1,0,534,,,,,,,TBD,"(39.0847, -76.9405)"
82909,Solaire Wheaton,10914 Georgia Ave,Silver Spring,20902,154214,-77.05020194,39.03522778,4/16/2019,,3,1,232,53,0.2,0.44,43,0,0,compliant,"(39.0352, -77.0502)"
112415,Manor at Cloppers Mill,18003 Mateny Rd,Germantown,20874,,-77.27119572,39.14681538,,,3,0,102,,,,,,,TBD,"(39.1468, -77.2712)"
18135,"White Ground Road, 17700",17700 White Ground Rd,Boyds,20841,145357,-77.34751393,39.15135843,12/26/2017,,1,0,2,2,4,2.12,0,0,0,troubled,"(39.1514, -77.3475)"
17470,"Flower Avenue, 8605 & 8607",8605 Flower Ave,Takoma Park,20912,138936,-77.0028817,38.99686747,3/15/2017,,1,0,6,7,14.85,1.7,0,0,0.42,troubled,"(38.9969, -77.0029)"
17313,"Flower Avenue, 8207",8207 Flower Ave,Takoma Park,20912,139547,-77.00175912,38.9917358,3/22/2017,,2,0,5,5,0.8,1.6,1,0,0,at-risk,"(38.9917, -77.0018)"
17522,"Houston Avenue, 905",905 Houston Ave,Takoma Park,20912,139606,-76.99976779,38.99124431,3/23/2017,,2,0,2,2,2.5,1.2,0,0,0,at-risk,"(38.9912, -76.9998)"
116700,Heritage at Waters Landing,20700 Crystal Hill Cir,Germantown,20874,,-77.27640881,39.1980251,,,2,0,300,,,,,,,TBD,"(39.198, -77.2764)"
17362,Park Montgomery,8860 Piney Branch Rd,Silver Spring,20903,154212,-76.99167459,39.00048055,5/15/2019,,2,1,143,36,2.19,1.39,10,0.02,0.02,at-risk,"(39.0005, -76.9917)"
116875,Landmark at Glenmont Station,2301 Glenallan Ave,Silver Spring,20906,,-77.04406129,39.06211587,,,2,0,625,,,,,,,TBD,"(39.0621, -77.0441)"
18218,"Garland Avenue, 8002",8002 Garland Ave,Takoma Park,20912,151015,-76.99898672,38.9896765,12/7/2018,,1,1,3,5,17.8,2.42,0,0.2,0,troubled,"(38.9897, -76.999)"
18211,MHP Hillbrooke Towers LLC,515 Thayer Ave,Silver Spring,20910,144031,-77.01347203,38.99396178,10/24/2017,,2,1,55,13,2.61,1.14,2,0,0,at-risk,"(38.994, -77.0135)"
116467,Earle Manor Apartments,10800 Georgia Ave,Silver Spring,20902,,-77.04935158,39.03240287,,,1,0,140,,,,,,,TBD,"(39.0324, -77.0494)"
116465,POINTE VIEW AT ASPEN HILL,3136 BEL PRE RD,Silver Spring,20906,,-77.04935158,39.03240287,,,1,0,120,,,,,,,TBD,"(39.0324, -77.0494)"
17363,Pembridge Square,2315 Blueridge Ave,Silver Spring,20902,154045,-77.04828447,39.04334925,4/2/2019,,2,1,133,129,2.2,1.44,29,0.09,0,at-risk,"(39.0433, -77.0483)"
17423,Amherst Square,11500 Amherst Ave,Silver Spring,20902,152883,-77.04791884,39.04340687,4/2/2019,,1,1,125,123,3.56,1.57,12,0.13,0.01,troubled,"(39.0434, -77.0479)"
17687,Browning Avenue Apartments,906 Browning Ave,Takoma Park,20912,153874,-77.0008796,38.99620853,4/8/2019,,1,1,16,16,2.18,1.75,2,0.12,0,troubled,"(38.9962, -77.0009)"
17719,"Domer Avenue, 310",310 Domer Ave,Takoma Park,20912,139537,-77.00238556,38.99686477,3/17/2017,,1,1,6,6,3.16,1.53,1,0.16,0.33,troubled,"(38.9969, -77.0024)"
118934,The Flats at Columbia Pike,11556 February Cir,Silver Spring,20904,,-76.97689723,39.04685913,,,3,0,528,,,,,,,TBD,"(39.0469, -76.9769)"
50131,"Flower Avenue, 8407",8407 Flower Ave,Takoma Park,20912,139548,-77.00195621,38.99454466,3/21/2017,,2,0,1,1,2,2.5,0,0,0,at-risk,"(38.9945, -77.002)"
17387,Round Hill Apartments,8584 Freyman Dr,Chevy Chase,20815,147569,-77.05896468,38.99636389,6/26/2018,,3,1,150,43,0.97,1.12,17,0,0,compliant,"(38.9964, -77.059)"
17477,North Park Apartments,4615 Park Ave N,Chevy Chase,20815,154223,-77.09241112,38.9636738,4/15/2019,,3,1,310,71,0.56,0.87,42,0,0.01,compliant,"(38.9637, -77.0924)"
108606,7770 Norfolk,7770 NORFOLK AVE,BETHESDA,20814,,-77.09637977,38.98822279,,,3,0,200,,,,,,,compliant,"(38.9882, -77.0964)"
75916,The Galaxy,8025 13Th St,Silver Spring,20910,154276,-77.02841554,38.98688068,4/19/2019,,2,1,195,49,0.32,2.12,0,0,0.02,at-risk,"(38.9869, -77.0284)"
17031,"Flower Avenue, 8515",8515 Flower Ave,Takoma Park,20912,152894,-77.00270572,38.99632385,3/15/2019,,1,1,5,4,1.25,1.65,1,0.25,0.25,troubled,"(38.9963, -77.0027)"
17292,Summit Hills,8484 16Th St,Silver Spring,20910,154210,-77.0395172,38.99703107,5/9/2019,,3,1,1120,279,1.75,1.45,87,0.01,0,compliant,"(38.997, -77.0395)"
81220,Falkland Chase Apartments South,8305 16Th St,Silver Spring,20910,146672,-77.03627506,38.99276173,4/13/2018,,3,1,147,38,0.5,0.73,20,0,0,compliant,"(38.9928, -77.0363)"
18223,"Garland Avenue, 8305",8305 Garland Ave,Takoma Park,20912,151002,-76.99999643,38.99338595,10/25/2018,,2,1,6,6,0.5,1.38,1,0,0,compliant,"(38.9934, -77.0)"
100467,The Point at Hampton Hollow,3400 HAMPTON HOLLOW DR,SILVER SPRING,20904,154232,-76.93954396,39.07541676,5/1/2019,,3,1,240,57,0.64,1.1,33,0,0,compliant,"(39.0754, -76.9395)"
17620,Naples Manor,1 Carona Ct,Silver Spring,20905,144915,-77.02247527,39.10091806,11/20/2017,,2,0,64,18,1.22,1.65,2,0,0,at-risk,"(39.1009, -77.0225)"
100250,Baldwin TLC,7910 Long Branch Pkwy,Takoma Park,20912,139611,-76.99645372,38.98794118,5/4/2017,,1,0,6,6,4.5,1.52,0,0,0,troubled,"(38.9879, -76.9965)"
17461,Peppertree Farm,14120 Weeping Willow Dr,Silver Spring,20906,144900,-77.06564945,39.08830481,2/14/2018,,1,0,881,450,2.28,1.53,86,0.12,0.06,troubled,"(39.0883, -77.0656)"
17019,"Maplewood Avenue, 800",800 Maplewood Ave,Takoma Park,20912,139612,-77.0006825,38.98851235,3/29/2017,,2,0,4,4,1.75,1.66,0,0,0,at-risk,"(38.9885, -77.0007)"
17334,"Greenwood Avenue, 8406",8406 Greenwood Ave,Takoma Park,20912,139515,-77.00156919,38.99464348,4/6/2017,,2,0,4,1,1,2,0,0,0,at-risk,"(38.9946, -77.0016)"
96373,"Plymouth Street, 8713",8713 Plymouth St,Silver Spring,20901,151006,-77.0071747,38.99999193,10/8/2018,,1,0,6,6,2.83,1.58,0,0.16,0.16,troubled,"(39.0, -77.0072)"
17788,"Greenwood Avenue, 8207",8207 Greenwood Ave,Takoma Park,20912,139484,-77.00053827,38.99217787,10/26/2017,,2,0,3,5,2,1.6,0,0,0,at-risk,"(38.9922, -77.0005)"
17982,"Avondale Street, 4508-4510",4508 Avondale St,Bethesda,20814,148711,-77.09263001,38.98596059,7/17/2018,,1,0,7,10,2.2,1.81,0,0,0,troubled,"(38.986, -77.0926)"
17943,Greenwood Mews,8211 Greenwood Ave,Takoma Park,20912,139531,-77.00074237,38.99255402,4/24/2017,,2,0,3,3,1,1.55,1,0,0,at-risk,"(38.9926, -77.0007)"
17484,"Longbranch Parkway, 7906",7906 Long Branch Pkwy,Takoma Park,20912,138304,-76.99601748,38.9877078,2/2/2017,,2,0,3,2,1,2,0,0,0,at-risk,"(38.9877, -76.996)"
18024,"Flower Avenue, 8511",8511 Flower Ave,Takoma Park,20912,139550,-77.0026002,38.99609044,3/23/2017,,2,0,2,2,1,2,0,0,0,at-risk,"(38.9961, -77.0026)"
18216,"Houston Avenue, 811",811 Houston Ave,Takoma Park,20912,139600,-77.00059455,38.99110428,3/23/2017,,2,0,3,3,2.33,1.42,0,0,0,at-risk,"(38.9911, -77.0006)"
18161,"Garland Avenue, 8005",8005 Garland Ave,Takoma Park,20912,150994,-76.9985786,38.98993188,9/13/2018,,1,0,3,4,2.5,2.44,0,0,0.5,troubled,"(38.9899, -76.9986)"
17190,"Perrywood, 26040 Woodfield Rd, Damascus, 20872",26040 Woodfield Rd,Damascus,20872,147580,-77.20280631,39.28439922,6/28/2018,,1,0,26,25,4.4,1.58,5,0.2,0.24,troubled,"(39.2844, -77.2028)"
90173,"Flower Avenue, 8101",8101 Flower Ave,Takoma Park,20912,139533,-77.00108361,38.98988247,3/16/2017,,2,0,6,6,1.5,2,0,0,0,at-risk,"(38.9899, -77.0011)"
17810,"Plymouth Street, 8711",8711 Plymouth St,Silver Spring,20901,146662,-77.00722744,38.99983542,5/2/2018,,1,0,6,6,1.66,1.9,0,0,0.16,at-risk,"(38.9998, -77.0072)"
18236,Prospect House,921 Prospect St,Takoma Park,20912,138382,-76.99781866,38.98939371,4/6/2017,,2,0,4,2,1.5,2.33,0,0,0,at-risk,"(38.9894, -76.9978)"
17437,"Plymouth Street, 8717",8717 Plymouth St,Silver Spring,20901,146628,-77.00710786,39.00018962,5/7/2018,,1,0,4,4,2.5,1.3,2,0.25,0.5,troubled,"(39.0002, -77.0071)"
17954,"Plymouth Street, 8800",8800 Plymouth St,Silver Spring,20901,146667,-77.00762514,39.00061791,4/9/2018,,1,0,6,6,1.5,2.22,0,0,0.16,at-risk,"(39.0006, -77.0076)"
17769,"Glenville Road, 8801",8801 Glenville Rd,Silver Spring,20901,139630,-76.99699497,38.99961868,4/12/2017,,2,0,4,4,2,1.66,0,0,0,at-risk,"(38.9996, -76.997)"
17421,Blair Park Gardens,7700 Blair Rd,Takoma Park,20912,146187,-77.02397801,38.98315026,3/20/2018,,1,0,74,19,2.15,2.19,0,0.21,0.21,troubled,"(38.9832, -77.024)"
17713,Bradley Terrace,6903 Strathmore St,Chevy Chase,20815-6225,146180,-77.09238117,38.9785556,3/16/2018,,1,0,24,7,4.85,1.48,1,0,0.42,troubled,"(38.9786, -77.0924)"
18231,"Houston Avenue, 809",809 Houston Ave,Takoma Park,20912,139565,-77.00080212,38.99107136,4/24/2017,,2,0,2,2,1.5,1.66,0,0,0,at-risk,"(38.9911, -77.0008)"
17443,Foxhall Apartments,8715 Piney Branch Rd,Silver Spring,20901,149257,-76.99598163,38.99878119,8/30/2018,,1,0,263,59,1.45,1.75,17,0.2,0,troubled,"(38.9988, -76.996)"
17316,"Quebec Terrace, 1027-1029",1027 Quebec Ter,Silver Spring,20903,139446,-76.98950173,38.99936658,4/17/2017,,1,0,8,8,6.87,1.56,0,0,0.12,troubled,"(38.9994, -76.9895)"
17478,"Garland Avenue, 8111",8111 Garland Ave,Takoma Park,20912,151013,-76.99918023,38.991291,10/15/2018,,1,0,3,3,2.33,2.14,0,0,0,troubled,"(38.9913, -76.9992)"
96482,8417 Flower Ave,8417 Flower Ave,Takoma Park,20912,138932,-77.0022518,38.99524203,4/13/2017,,2,0,4,5,1,2.2,0,0,0,at-risk,"(38.9952, -77.0023)"
17174,"Avondale Street, 4530",4530 Avondale St,Bethesda,20814,146620,-77.0936114,38.98586647,4/24/2018,,1,0,4,4,5,1.45,0,0,0.25,troubled,"(38.9859, -77.0936)"
17729,"Avondale Street, 4534 & 4536",4534 Avondale St,Bethesda,20814,147571,-77.09380136,38.98585259,6/6/2018,,1,0,4,4,4,1.31,1,0,0.25,troubled,"(38.9859, -77.0938)"
17813,"Plymouth Street, 8712",8712 Plymouth St,Silver Spring,20901,146663,-77.00777639,39.0001374,5/7/2018,,1,0,6,6,2.33,1.66,1,0,0.16,troubled,"(39.0001, -77.0078)"
17301,Sligo House Apartments,603 Sligo Ave,Silver Spring,20910,141074,-77.01366742,38.99129111,6/23/2017,,2,0,64,33,2.39,1.28,5,0,0,at-risk,"(38.9913, -77.0137)"
17447,"Greenwood Avenue, 8606",8606 Greenwood Ave,Takoma Park,20912,139527,-77.00244187,38.99735899,3/30/2017,,2,0,3,3,1,1.66,0,0,0,at-risk,"(38.9974, -77.0024)"
17956,"Plymouth Street, 8709",8709 Plymouth St,Silver Spring,20901,146670,-77.00728372,38.99967614,5/2/2018,,1,0,6,6,1.83,2.5,0,0,0.33,troubled,"(38.9997, -77.0073)"
17168,The Warwick,1131 University Blvd W,Silver Spring,20902,146490,-77.02866189,39.03634092,4/19/2018,,3,1,399,102,1,1.29,32,0.05,0,compliant,"(39.0363, -77.0287)"
106982,Cherry Knolls Apartment,18832 BENT WILLOW CIR,GERMANTOWN,20874,146689,0,0,8/8/2018,,3,1,300,74,0.71,0.94,33,0.01,0.04,compliant,"(0.0, 0.0)"
17628,The Verandahs Apartments,9300 Willow Creek Dr,Montgomery Village,20886,154292,0,0,5/14/2019,,1,1,185,52,2.19,1.83,6,0.15,0,troubled,"(0.0, 0.0)"
17279,Georgia West,8708 1St Ave,Silver Spring,20910,152880,-77.03263164,38.99772785,3/1/2019,,3,1,107,23,0.08,0.32,18,0,0,compliant,"(38.9977, -77.0326)"
17979,"Avondale Street, 4527",4527 Avondale St,Bethesda,20814,148709,-77.09346069,38.98629768,5/3/2019,,2,1,4,4,0.75,1.66,0,0,0,at-risk,"(38.9863, -77.0935)"
17761,"Dale Drive, 527",527 Dale Dr,Silver Spring,20910,153705,-77.01735099,39.00060315,3/12/2019,,2,1,10,6,0.66,0.66,2,0,0,compliant,"(39.0006, -77.0174)"
17323,"Bonifant Street, 828",828 Bonifant St,Silver Spring,20910,153883,-77.02284544,38.99472088,3/7/2019,,2,1,3,3,0,0,2,0,0,compliant,"(38.9947, -77.0228)"
17451,Rock Creek Palisades,11300 Connecticut Ave,Kensington,20895,147458,-77.07718369,39.04250013,6/12/2018,,3,1,60,17,0.52,0.39,13,0,0,compliant,"(39.0425, -77.0772)"
17195,Flower Branch Apartments,8628 Piney Branch Rd,Silver Spring,20901,149258,-76.99973782,38.99860344,8/29/2018,,3,1,362,308,1.35,1.3,104,0.07,0.08,compliant,"(38.9986, -76.9997)"
18123,"Greenwood Avenue, 8314",8314 Greenwood Ave,Takoma Park,20912,146192,-77.00149884,38.99379231,4/23/2018,,2,1,1,1,0,0,0,0,0,compliant,"(38.9938, -77.0015)"
17428,Stratford Terrace,9061 Manchester Rd,Silver Spring,20901,154238,0,0,4/26/2019,,2,1,19,22,1.22,1.27,2,0,0,compliant,"(0.0, 0.0)"
17302,Parklane Apartments,8200 Spiceberry Cir,Gaithersburg,20877,146563,-77.16342629,39.1517717,5/25/2018,,3,1,137,24,1.12,-0.41,32,0,0,compliant,"(39.1518, -77.1634)"
17268,Westchester West,3214 Hewitt Ave,Silver Spring,20906,154262,-77.06439261,39.07976029,5/20/2019,,2,1,345,85,1.45,1.47,22,0.09,0.01,compliant,"(39.0798, -77.0644)"
17596,"Nolte Avenue, 8216",8216 Nolte Ave,Silver Spring,20910,152899,-77.01352828,38.9934099,1/16/2019,,1,1,3,4,2.75,1.63,0,0,0,troubled,"(38.9934, -77.0135)"
17434,Eastern Avenue Apartments,7603 Eastern Ave,Takoma Park,20912,153884,-77.0229752,38.98249701,9/14/2017,,1,1,41,38,1.57,1.64,8,0.26,0,troubled,"(38.9825, -77.023)"
17308,Chateau Apartments,9727 Mt Pisgah Rd,Silver Spring,20903,149259,-76.97497936,39.01686173,9/19/2018,,3,1,399,86,0.54,0.89,48,0.02,0.02,compliant,"(39.0169, -76.975)"
95697,Sawyer Flats,9806 Mahogany Dr,Gaithersburg,20878,154240,-77.20140001,39.11507934,4/30/2019,,3,1,648,154,1.24,1.34,53,0,0,compliant,"(39.1151, -77.2014)"
17296,Cole Spring Plaza,1001 Spring St,Silver Spring,20910,150070,-77.0265768,38.99953332,10/5/2018,,3,1,268,62,0.51,1.08,29,0.01,0.01,compliant,"(38.9995, -77.0266)"
46012,The Gardens Of Traville Senior Apartment,14411 Traville Garden Cir,Rockville,20850,148552,-77.20377476,39.09333365,7/13/2018,,2,1,230,120,0.7,1.66,51,0.01,0.14,at-risk,"(39.0933, -77.2038)"
112363,The Lockwood,11431 Lockwood Dr,Silever Spring,20904,151789,0,0,11/13/2018,,1,1,111,106,2.71,1.73,24,0.24,0.15,troubled,"(0.0, 0.0)"
16472,"Garland Avenue, 7803",7803 Garland Ave,Takoma Park,20912,151787,-76.99724174,38.98771607,11/5/2018,,2,1,1,1,0,0,0,0,0,compliant,"(38.9877, -76.9972)"
17984,"Avondale Street, 4500-4502",4500 Avondale St,Bethesda,20814,148712,-77.09224308,38.98599658,7/13/2018,,2,1,7,10,1,2.16,2,0,0,at-risk,"(38.986, -77.0922)"
17241,Highland House,5480 Wisconsin Ave,Chevy Chase,20815,154260,-77.08751143,38.96321355,5/15/2019,,3,1,391,97,0.65,0.57,60,0,0,compliant,"(38.9632, -77.0875)"
17606,8401 Flower Avenue,8401 Flower Ave,Takoma Park,20912,153875,-77.00185772,38.99414101,3/19/2019,,2,1,6,6,0.5,1.66,0,0,0,at-risk,"(38.9941, -77.0019)"
17265,Friendly Gardens,2423 Lyttonsville Rd,Silver Spring,20910,146622,-77.05041394,39.00002645,5/22/2018,,3,1,85,22,1.36,0.99,8,0,0.04,compliant,"(39.0, -77.0504)"
106762,Cider Mill,18205 LOST KNIFE CIR,MONTGOMERY VILLAGE,20886,152904,-77.20323491,39.15717753,3/6/2019,,3,1,861,211,1.32,1.32,76,0.07,0,compliant,"(39.1572, -77.2032)"
50466,The Rothbury Apartments,20120 Rothbury Ln,Montgomery Village,20886,150518,-77.1909868,39.18617846,10/10/2018,,3,1,205,50,0.5,1.02,26,0,0.02,compliant,"(39.1862, -77.191)"
17536,Damascus Gardens,9829 Bethesda Church Rd,Damascus,20872,146194,-77.20435052,39.28327526,4/18/2018,,2,1,104,107,2.15,1.32,22,0.01,0,at-risk,"(39.2833, -77.2044)"
90163,The Park at Kingsview Village,13414 Daventry Way,Germantown,20874,154246,-77.27989618,39.15802448,11/28/2019,,2,1,325,100,1.16,1.75,12,0,0,at-risk,"(39.158, -77.2799)"
17164,Preston Place Townhouses,3710 Manor Rd,Chevy Chase,20815,146495,-77.07136103,38.99761454,5/8/2018,,3,1,67,15,0.93,1.16,4,0,0.06,compliant,"(38.9976, -77.0714)"
45287,Avalon At Grosvenor Station,10306 Strathmore Hall St,Rockville,20852,146198,-77.10166237,39.02582996,4/5/2018,,3,1,497,142,0.43,0.8,78,0,0,compliant,"(39.0258, -77.1017)"
17163,Chevy Chase Lake North,3710 Manor Rd,Chevy Chase,20815,147542,-77.07136103,38.99761454,7/3/2018,,3,1,67,18,0.94,1.22,7,0,0.05,compliant,"(38.9976, -77.0714)"
16471,Avondale Apartments,4507 Avondale St,Bethesda,20814,146618,-77.09236677,38.98643034,4/30/2018,,2,1,22,7,2,0.93,2,0,0,compliant,"(38.9864, -77.0924)"
17532,Tilbury Garden Apartments,7806 Tilbury St,Bethesda,20814,154225,-77.09405507,38.988815,4/29/2019,,1,0,30,10,2.1,2.1,1,0,0,troubled,"(38.9888, -77.0941)"
17297,Colesville Towers,8811 Colesville Rd,Silver Spring,20910,153890,-77.02509898,38.99965719,4/10/2019,,2,1,259,57,1.42,1.4,13,0.03,0,compliant,"(38.9997, -77.0251)"
45178,Avalon At Traville,14240 Alta Oaks Dr,Rockville,20850,146172,-77.20557287,39.09096448,6/7/2018,,3,1,520,125,0.46,0.74,81,0,0.03,compliant,"(39.091, -77.2056)"
17953,"Plymouth Street, 8716",8716 Plymouth St,Silver Spring,20901,146666,-77.0076744,39.00045863,4/9/2018,,2,1,6,6,1.33,1.57,0,0,0,at-risk,"(39.0005, -77.0077)"
17191,White Oak Gardens,11600 Lockwood Dr,Silver Spring,20904,154235,-76.98396977,39.04191768,5/23/2019,,2,1,352,93,1.63,1.39,22,0.08,0.02,compliant,"(39.0419, -76.984)"
17711,4701 Willard Apartments,4701 Willard Ave,Chevy Chase,20815,153872,-77.09444675,38.96315598,3/21/2019,,3,1,517,122,0.97,0.92,58,0,0,compliant,"(38.9632, -77.0944)"
17395,Glen Dorra,4998 Battery Ln,Bethesda,20814,146497,-77.10141553,38.99158475,5/7/2018,,2,1,95,23,1.04,1.47,6,0,0,compliant,"(38.9916, -77.1014)"
108368,Villaflores,8810 BRADFORD RD,SILVER SPRING,20901,154231,0,0,4/4/2019,,3,1,6,6,1.33,0.75,3,0,0,compliant,"(0.0, 0.0)"
17324,"Garland Avenue, 7900",7900 Garland Ave,Takoma Park,20912,151794,-76.99844493,38.98853978,11/5/2018,,2,1,3,1,0,0,0,0,0,compliant,"(38.9885, -76.9984)"
17709,Crystal Springs,14301 Georgia Ave,Silver Spring,20906,152903,-77.07807864,39.09121032,3/7/2019,,1,1,435,103,2.45,1.72,13,0.15,0,troubled,"(39.0912, -77.0781)"
17790,"Glenville Road, 8809",8809 Glenville Rd,Silver Spring,20901,154036,-76.99653048,38.99995089,4/17/2019,,1,1,4,5,6.8,2.08,0,0.4,0,troubled,"(39.0, -76.9965)"
17981,"Avondale Street, 4504-4506",4504 Avondale St,Bethesda,20814,148710,-77.0924154,38.98598,7/13/2018,,3,1,7,10,1.5,1.3,3,0,0,compliant,"(38.986, -77.0924)"
17325,Rollingwood,2535 Ross Rd,Silver Spring,20910,152887,-77.05470622,38.99601731,4/3/2019,,1,1,283,270,2.02,1.51,66,0.13,0.01,troubled,"(38.996, -77.0547)"
17641,The Villages At Decoverly,9901 Gable Ridge Ter,Rockville,20850,147536,-77.20521631,39.10839767,7/12/2018,,3,1,564,139,0.43,0.7,84,0,0.01,compliant,"(39.1084, -77.2052)"
17564,Bethesda Hill,5114 Dudley Ln,Bethesda,20814,146549,-77.10267596,39.01417527,4/10/2018,,3,1,194,52,1.3,1.41,10,0,0.05,compliant,"(39.0142, -77.1027)"
50688,"Garland Avenue, 8304",8304 Garland Ave,Takoma Park,20912,154050,-77.00061569,38.99335579,4/5/2019,,1,1,6,6,2.16,1.76,0,0.33,0,troubled,"(38.9934, -77.0006)"
17766,"Greenwood Avenue, 8500",8500 Greenwood Ave,Takoma Park,20912,139520,-77.00174516,38.99505537,3/23/2017,,1,0,5,5,2.2,2,0,0,0,troubled,"(38.9951, -77.0017)"
17632,The Point At Germantown,2 Observation Ct,Germantown,20876,154253,-77.24749447,39.19213983,4/17/2019,,2,1,218,50,1.54,1.52,19,0.02,0,at-risk,"(39.1921, -77.2475)"
17623,"Kennebec Avenue, 900",900 Kennebec Ave,Takoma Park,20912,138351,-76.99977829,38.99063751,2/6/2017,,1,0,3,3,1.66,2.26,1,0,0.66,troubled,"(38.9906, -76.9998)"
17500,"Greenwood Avenue, 8205",8205 Greenwood Ave,Takoma Park,20912,139482,-77.00047141,38.99200215,10/12/2017,,1,0,1,1,10,1.7,0,0,0,troubled,"(38.992, -77.0005)"
13612,2215 Spencerville Road,2215 Spencerville Rd,Spencerville,20868,156069,-76.96577038,39.11578007,6/13/2019,,1,1,2,3,6.33,1.88,0,0,0,troubled,"(39.1158, -76.9658)"
17410,Glen Mont,4900 Battery Ln,Bethesda,20814,146537,-77.099129,38.99187501,5/18/2018,,2,1,50,11,1.9,1.77,1,0,0,at-risk,"(38.9919, -77.0991)"
17286,"Kennebec Avenue, 903",903 Kennebec Ave,Takoma Park,20912,139608,-76.99942652,38.99024486,4/17/2017,,2,1,1,1,4,1.33,0,0,0,at-risk,"(38.9902, -76.9994)"
17997,"Garland Avenue, 8003",8003 Garland Ave,Takoma Park,20912,154048,-76.99852933,38.98980833,4/5/2019,,2,1,1,2,0.5,3,0,0,0,at-risk,"(38.9898, -76.9985)"
50866,Elms At Germantown,20426 Apple Harvest Cir,Germantown,20876,149968,-77.24338276,39.19161243,10/3/2018,,2,1,316,76,0.6,1.55,21,0,0,at-risk,"(39.1916, -77.2434)"
17361,Amherst Gardens,11430 Amherst Ave,Silver Spring,20902,152881,-77.04807276,39.04193808,4/2/2019,,1,1,22,22,7.04,1.93,0,0.13,0,troubled,"(39.0419, -77.0481)"
17285,"Greenwood Ave, 8515 & Browning Ave, 400",8515 Greenwood Ave,Takoma Park,20912,139469,-77.00145316,38.99617836,9/28/2017,,2,0,24,29,2.03,1.2,7,0.13,0,at-risk,"(38.9962, -77.0015)"
113035,Oak Mill Apartments,20010 Frederick Rd,Germantown,20876,157508,0,0,6/29/2019,,3,1,400,373,1.13,1.35,121,0.02,0.03,compliant,"(0.0, 0.0)"
17397,Middlebrooke,5015 Battery Ln,Bethesda,20814,146531,-77.10337129,38.99131122,5/4/2018,,2,1,84,33,0.93,1.8,8,0,0,at-risk,"(38.9913, -77.1034)"
17438,"Flower Avenue, 8011",8011 Flower Ave,Takoma Park,20912,139543,-77.00082677,38.9897424,3/21/2017,,1,0,4,4,5.25,1.9,0,0,0,troubled,"(38.9897, -77.0008)"
96541,Central,8455 Fenton St,Silver Spring,20910,,-77.02401718,38.99505015,,,3,0,243,,,,,,,compliant,"(38.9951, -77.024)"
18215,"Kennebec Avenue, 807",807 Kennebec Ave,Takoma Park,20912,138369,-77.00005626,38.99019822,1/18/2017,,2,0,5,5,0.6,1.8,2,0,0,at-risk,"(38.9902, -77.0001)"
17557,Chadswood,1 Cross Laurel Ct,Germantown,20876,147586,-77.22899764,39.18967097,6/12/2018,,2,1,11,11,2.45,1.22,4,0.09,0.09,at-risk,"(39.1897, -77.229)"
108674,"8809 PLYMOUTH STREET, LLC",8809 PLYMOUTH ST,SILVER SPRING,20901,146671,-77.00671033,39.00113415,4/23/2018,,3,1,6,6,0.5,0.77,4,0,0.16,compliant,"(39.0011, -77.0067)"
17699,"Quebec Terrace, 1031",1031 Quebec Ter,Silver Spring,20903,139447,-76.98688207,39.00031264,5/4/2017,,1,0,4,4,3.75,1.8,0,0,0.25,troubled,"(39.0003, -76.9869)"
17589,Seneca Club Apartment,18065 Cottage Garden Dr,Germantown,20874,146575,-77.27728608,39.15318242,5/3/2018,,3,1,378,80,1.62,1.22,14,0,0.02,compliant,"(39.1532, -77.2773)"
96607,910 KENNEBEC AVE,910 Kennebec Ave,Takoma Park,20912,139609,-76.99942298,38.99061006,3/28/2017,,1,0,3,3,4,2.08,0,0,0,troubled,"(38.9906, -76.9994)"
17329,"Glenville Road, 8813",8813 Glenville Rd,Silver Spring,20901,154038,-76.99636512,39.00025019,4/10/2019,,3,1,8,5,1.6,0.9,2,0,0,compliant,"(39.0003, -76.9964)"
105579,Kensington Park Senior Living,3620 LITTLEDALE RD,KENSINGTON,20895,,-77.07448209,39.01784015,,,3,0,61,,,,,,,compliant,"(39.0178, -77.0745)"
17511,"Olney-Sandy Spring Road, 903 & 907",903 OLNEY SANDY SPRING RD,Laurel,20707,148734,-77.02680599,39.14964061,7/23/2018,,1,0,4,4,5,2,0,0,0.25,troubled,"(39.1496, -77.0268)"
17608,"Glenville Road, 8800",8800 Glenville Rd,Silver Spring,20901,151849,-76.99732224,38.99963788,11/29/2018,,3,1,7,4,0.75,0.75,1,0,0,compliant,"(38.9996, -76.9973)"
17520,"Bradford Road, 8712",8712 Bradford Rd,Silver Spring,20901,139632,-77.00686149,38.99958831,6/20/2017,,2,0,6,6,0.66,2.33,2,0,0.16,at-risk,"(38.9996, -77.0069)"
17999,"Piney Branch Road, 8202-8208",8202 Piney Branch Rd,Silver Spring,20910,141061,-77.00951249,38.99295789,6/20/2017,,2,0,2,2,4,1.06,1,0,0,at-risk,"(38.993, -77.0095)"
17571,Knights Bridge I I,13516 Greencastle Ridge Ter,Burtonsville,20866,154259,-76.93022931,39.07880368,5/13/2019,,3,1,207,58,1.5,1.17,21,0,0,compliant,"(39.0788, -76.9302)"
50463,"Prospect Street, 907",907 Prospect St,Takoma Park,20912,138945,-76.99897269,38.98915484,2/9/2017,,2,0,2,2,1.5,2,0,0,0,at-risk,"(38.9892, -76.999)"
17170,Camp Hill Square,17825 Washington Grove Ln,Gaithersburg,20877,148732,-77.16808843,39.14843026,8/20/2018,,2,1,51,14,2.21,1.47,3,0.07,0.07,at-risk,"(39.1484, -77.1681)"
17773,"Glenville Road, 8817",8817 Glenville Rd,Silver Spring,20901,154236,-76.99634752,39.00048079,4/23/2019,,2,1,3,3,1.33,2,0,0,0,at-risk,"(39.0005, -76.9963)"
90366,UNIVERSITY GARDENS II,440 University Blvd E,Silver Spring,20901,154467,-76.99808373,39.00757311,5/3/2019,,3,1,27,7,0,0,7,0,0,compliant,"(39.0076, -76.9981)"
17579,Canterbury,20019 Sweetgum Cir,Germantown,20874,149264,-77.27438804,39.18475103,8/23/2018,,2,1,544,136,1.38,1.53,38,0.02,0.06,at-risk,"(39.1848, -77.2744)"
92816,"Garland Avenue, 8104",8104 Garland Ave,Takoma Park,20912,146195,-76.99959886,38.9908956,3/7/2018,,3,1,1,1,0,0,1,0,0,compliant,"(38.9909, -76.9996)"
17181,Parkside Terrace,500 Easley St,Silver Spring,20910,141005,-77.01704848,38.99522825,5/31/2017,,1,0,86,24,2.54,1.7,0,0,0,troubled,"(38.9952, -77.017)"
17311,"Plymouth Street, 8802",8802 Plymouth St,Silver Spring,20901,146617,-77.0075724,39.00077443,4/23/2018,,1,0,6,6,1.16,2.14,0,0,0.16,at-risk,"(39.0008, -77.0076)"
95488,1019-1025 Quebec Terrace,1019 Quebec Ter,Silver Spring,20903,139443,-76.9878392,39.00016724,3/28/2017,,1,0,16,4,5.5,1.66,0,0,0.25,troubled,"(39.0002, -76.9878)"
101933,The Brody,4901 MONTGOMERY LN,BETHESDA,20814,,-77.09768917,38.98356498,,,3,0,112,,,,,,,compliant,"(38.9836, -77.0977)"
17988,Inverness Townhomes,7801 Coddle Harbor Ln,Potomac,20854,127772,-77.15922707,39.04285661,6/8/2015,,1,0,1,1,21,1.9,0,0,0,troubled,"(39.0429, -77.1592)"
17335,"Glenville Road, 8811",8811 Glenville Rd,Silver Spring,20901,154037,-76.99643901,39.00007171,5/6/2019,,1,1,7,8,4.75,1.86,0,0.12,0.12,troubled,"(39.0001, -76.9964)"
17518,Kennebec House,808 Kennebec Ave,Takoma Park,20912,139610,-77.00026737,38.99050024,3/21/2017,,1,0,5,3,2.66,1.62,0,0,0,troubled,"(38.9905, -77.0003)"
17554,"Wisconsin Avenue, 7347",7347 Wisconsin Ave,Bethesda,20814,146178,-77.09329144,38.98333792,3/9/2018,,1,0,5,5,3,1.33,0,0,0.2,troubled,"(38.9833, -77.0933)"
17369,"Schrider Street, 8115",8115 Schrider St,Silver Spring,20910,141065,-77.01409088,38.9918091,5/26/2017,,2,0,9,9,2.11,1.22,2,0.11,0,at-risk,"(38.9918, -77.0141)"
17346,"Avondale Street, 4522-24",4522 Avondale St,Bethesda,20814,146627,-77.09321037,38.98590247,3/30/2018,,2,1,7,7,2.42,1.47,0,0,0,at-risk,"(38.9859, -77.0932)"
79586,Woodward Crossing,8380 Broderick Cir,Gaithersburg,20877,148736,-77.16999279,39.14710462,7/30/2018,,2,1,32,8,1.5,1.7,2,0,0,at-risk,"(39.1471, -77.17)"
17295,Silver Spring House Apartments,555 Thayer Ave,Silver Spring,20910,141072,-77.01663517,38.99424419,6/2/2017,,2,0,80,23,2.17,1.16,2,0,0,at-risk,"(38.9942, -77.0166)"
18013,Kensington House,10225 Frederick Ave,Kensington,20895,147579,-77.0694874,39.02467999,6/27/2018,,2,1,138,134,2.32,1.35,36,0.08,0.11,at-risk,"(39.0247, -77.0695)"
95494,Dale Apartments,524 Thayer Ave,Silver Spring,20910,142401,-77.01416157,38.99334393,8/1/2017,,1,0,26,8,4,2.09,0,0.5,0,troubled,"(38.9933, -77.0142)"
17452,Holiday Park Townhouses,4115 Garrett Park Rd,Silver Spring,20906,140492,-77.08213885,39.04669766,6/13/2017,,2,1,20,10,3,1.14,1,0,0,at-risk,"(39.0467, -77.0821)"
105672,Not Available,302 PATTERSON CT,TAKOMA PARK,20912,138376,-76.99610192,38.98744146,4/19/2017,,1,0,5,8,3.25,1.76,0,0,0,troubled,"(38.9874, -76.9961)"
17741,"Avondale Street, 4516-4518",4516 Avondale St,Bethesda,20814,148706,-77.0930275,38.98592182,8/8/2018,,1,0,5,4,2.75,1.45,0,0,0,at-risk,"(38.9859, -77.093)"
108557,The Point at Germantown Station,19200 CIRCLE GATE DR,GERMANTOWN,20874,146574,0,0,6/6/2018,,3,1,468,121,1.53,1.4,35,0.01,0.06,compliant,"(0.0, 0.0)"
57536,Covenant Village,18889 Waring Station Rd,Germantown,20874,149969,-77.24622213,39.16605402,8/22/2018,,2,1,89,22,0.77,1.6,10,0,0,at-risk,"(39.1661, -77.2462)"
18018,"Flower Avenue, 8411",8411 Flower Ave,Takoma Park,20912,138929,-77.00207588,38.99482471,4/7/2017,,1,0,2,4,9.5,1.81,0,0,0,troubled,"(38.9948, -77.0021)"
17533,"Houston Avenue, 902",902 Houston Ave,Takoma Park,20912,139604,-77.00013013,38.9916644,3/23/2017,,1,0,3,3,7,1.76,0,0,0.33,troubled,"(38.9917, -77.0001)"
100160,Acclaim at Germantown,12912 Falling Water Cir,Germantown,20874,154248,0,0,4/8/2019,,2,1,143,39,1.87,1.85,11,0,0,at-risk,"(0.0, 0.0)"
90206,308 PATTERSON CT,308 Patterson Ct,Takoma Park,20912,152900,-76.99661905,38.9877627,2/19/2019,,2,1,7,7,2.14,1.31,1,0,0,at-risk,"(38.9878, -76.9966)"
17193,Fairfax Court,1 Fairfax Ct,Chevy Chase,20815,146168,-77.10277844,38.97545528,3/20/2018,,1,0,18,16,2.68,1.65,0,0.06,0,troubled,"(38.9755, -77.1028)"
17485,"Flower Avenue, 8001",8001 Flower Ave,Takoma Park,20912,151000,-77.00075991,38.9889736,12/3/2018,,3,1,1,1,2,1.5,0,0,0,compliant,"(38.989, -77.0008)"
88050,"Georgia Spring, LLC",923 Silver Spring Ave,Silver Spring,20910,146203,-77.02597694,38.99167188,3/16/2018,,2,1,3,3,1.33,2,1,0,0,at-risk,"(38.9917, -77.026)"
18000,"Main Street, 9863",9863 Main St,Damascus,20872,146576,-77.2033628,39.28821721,4/23/2018,,2,1,4,4,1.25,1.6,0,0,0,at-risk,"(39.2882, -77.2034)"
51600,"Rosewood Residences 2, Brookside View II",8206 Streamside Pl,Gaithersburg,20879,154497,0,0,5/20/2019,,1,1,48,11,2.09,2.13,1,0,0,troubled,"(0.0, 0.0)"
17446,"Greenwood Avenue, 8507",8507 Greenwood Ave,Takoma Park,20912,139523,-77.0013687,38.99551115,3/7/2017,,2,0,4,4,3.25,1.3,0,0,0,at-risk,"(38.9955, -77.0014)"
17304,"Plyers Mill Road, 4107",4107 Plyers Mill Rd,Kensington,20895,150064,-77.08063917,39.0314245,9/20/2018,,3,1,12,12,1.5,1.37,3,0,0.08,compliant,"(39.0314, -77.0806)"
17289,Strathmore Apartments,7025 Strathmore St,Chevy Chase,20815,146175,-77.09280431,38.97935703,3/19/2018,,2,1,28,8,0.87,1.62,1,0,0,at-risk,"(38.9794, -77.0928)"
17436,"Domer Avenue, 311",311 Domer Ave,Takoma Park,20912,139540,-77.0023715,38.99645288,4/4/2017,,1,0,8,8,1.5,1.2,4,0.12,0.25,troubled,"(38.9965, -77.0024)"
17175,"Avondale Street, 4526",4526 Avondale St,Bethesda,20814,146621,-77.09341442,38.98588311,4/24/2018,,1,0,4,4,3,1.83,0,0,0.5,troubled,"(38.9859, -77.0934)"
90162,"Quebec Flats, LLC",1011 Quebec Ter,Silver Spring,20903,139440,-76.98878576,39.00002178,4/12/2017,,1,0,8,4,6,1.78,0,0.25,0.25,troubled,"(39.0, -76.9888)"
17331,"Flower Avenue, 8205",8205 Flower Ave,Takoma Park,20912,139546,-77.00172041,38.99159578,4/13/2017,,1,0,2,2,4,1.85,0,0,0,troubled,"(38.9916, -77.0017)"
17159,Sligo Park Hills,108 Schuyler Rd,Silver Spring,20901,150067,-77.01233358,39.00250382,9/18/2018,,1,1,26,7,3.14,1.55,1,0,0,troubled,"(39.0025, -77.0123)"
17322,"Maplewood Avenue, 806",806 Maplewood Ave,Takoma Park,20912,138944,-77.00007036,38.98862217,2/24/2017,,1,0,4,3,2.33,1.71,0,0,0,troubled,"(38.9886, -77.0001)"
95642,"Plymouth Street, 8710",8710 Plymouth St,Silver Spring,20901,154263,-77.00782913,38.99997812,4/1/2019,,2,1,6,6,3,1,2,0,0,at-risk,"(39.0, -77.0078)"
17180,Corona Apartments,714 Sligo Ave,Silver Spring,20910,140995,-77.01767567,38.99012275,6/7/2017,,2,0,43,11,3,1.41,3,0.18,0.09,at-risk,"(38.9901, -77.0177)"
18002,Hampton Point,3340 Hampton Point Dr,Silver Spring,20904,138294,-76.94088443,39.07751845,2/16/2017,,1,0,352,80,2.18,1.91,5,0,0,troubled,"(39.0775, -76.9409)"
112859,4715 Cordell Avenue,4715 Cordell Ave,Bethesda,20814,153784,0,0,3/10/2019,,2,1,32,2,2.5,1.2,0,0,0,at-risk,"(0.0, 0.0)"
17342,"Garland Avenue, 7907",7907 Garland Ave,Takoma Park,20912,151017,-76.9980263,38.98903676,11/8/2018,,1,0,3,4,5,2.25,0,0,0.5,troubled,"(38.989, -76.998)"
17985,"Garland Avenue, 8311",8311 Garland Ave,Takoma Park,20912,154052,-77.00010199,38.99386645,5/1/2019,,2,1,6,7,2.14,1.47,2,0.14,0,at-risk,"(38.9939, -77.0001)"
18210,"Georgia Avenue, 22310",22310 Georgia Ave,Brookeville,20833,154041,-77.06012949,39.22257312,3/18/2019,,3,1,2,2,0,0,6,0,0,compliant,"(39.2226, -77.0601)"
17527,Montgomery Club V,204 Water St,Gaithersburg,20877,150077,-77.20476446,39.13628373,4/1/2019,,2,1,47,7,0.85,2.14,2,0,0,at-risk,"(39.1363, -77.2048)"
17806,"Thayer Avenue, 808",808 Thayer Ave,Silver Spring,20910,138950,-77.02282367,38.99272203,4/4/2017,,1,0,2,2,3.5,1.85,0,0,0,troubled,"(38.9927, -77.0228)"
17756,"Glenville Road, 8815",8815 Glenville Rd,Silver Spring,20901,154039,-76.99634753,39.00039022,4/17/2019,,1,1,4,4,4,1.56,0,0,0,troubled,"(39.0004, -76.9963)"
112943,Auden Apartments,12631 Georgia Ave,Silver Spring,20906,144860,-77.05396811,39.06359057,1/10/2018,,1,0,165,34,2.47,1.58,3,0.05,0,troubled,"(39.0636, -77.054)"
17339,"Bradford Road, 8802",8802 Bradford Rd,Silver Spring,20901,139637,-77.00655897,39.00055208,4/12/2017,,2,0,6,6,1.83,1.81,1,0,0.16,at-risk,"(39.0006, -77.0066)"
100298,Walker House,18700 Walkers Choice Rd,Montgomery Village,20886,154257,-77.20552829,39.16302992,5/15/2019,,3,1,212,56,1.67,1.02,22,0.03,0,compliant,"(39.163, -77.2055)"
27164,"Flower Avenue, 8201",8201 Flower Ave,Takoma Park,20912,139545,-77.00163597,38.99132944,4/4/2017,,1,0,4,3,0.33,0,3,0,0.33,troubled,"(38.9913, -77.0016)"
17433,"Flower Avenue, 8619",8619 Flower Ave,Takoma Park,20912,138939,-77.00299785,38.99730404,3/29/2017,,1,0,5,5,4.2,1.61,0,0,0,troubled,"(38.9973, -77.003)"
112805,"Plymouth Street, 8801",8801 Plymouth Street,Silver Spring,20910,154303,0,0,4/12/2019,,2,1,6,6,1.5,1.66,0,0,0,at-risk,"(0.0, 0.0)"
17549,Montgomery Club V I,17101 Queen Victoria Ct,Gaithersburg,20877,154043,-77.20500944,39.13657798,4/1/2019,,1,1,109,17,2.23,2.42,1,0.11,0,troubled,"(39.1366, -77.205)"
17759,"Houston Avenue, 904",904 Houston Ave,Takoma Park,20912,139605,-76.99992256,38.99170833,6/14/2017,,2,0,1,1,1,5,0,0,0,at-risk,"(38.9917, -76.9999)"
18229,"Greenwood Avenue, 8405",8405 Greenwood Ave,Takoma Park,20912,139514,-77.00095699,38.99440736,4/6/2017,,1,0,3,1,1,5,0,0,1,troubled,"(38.9944, -77.001)"
17690,"Nolte Avenue, 8207",8207 Nolte Ave,Silver Spring,20910,141004,-77.01291603,38.99336056,6/1/2017,,2,0,7,7,4.42,1.4,0,0,0,at-risk,"(38.9934, -77.0129)"
17804,"Plymouth Street, 8715",8715 Plymouth St,Silver Spring,20901,141063,-77.00713246,39.00011,6/5/2017,,2,0,4,4,2.5,1.22,0,0,0,at-risk,"(39.0001, -77.0071)"
105435,AHC Bucknell LLC,11500 BUCKNELL DR,SILVER SPRING,20902,154227,-77.04674329,39.04355684,4/30/2019,,1,1,40,12,2.41,2.1,0,0.08,0,troubled,"(39.0436, -77.0467)"
17528,"Flower Avenue, 8601",8601 Flower Ave,Takoma Park,20912,139551,-77.00285001,38.99674941,3/22/2017,,2,0,4,5,1.8,1.66,0,0,0,at-risk,"(38.9967, -77.0029)"
17960,"Prospect Street, 915",915 Prospect St,Takoma Park,20912,139622,-76.99850211,38.98947176,3/21/2017,,2,0,3,3,3,1.33,0,0,0,at-risk,"(38.9895, -76.9985)"
105478,Randolph Village Apartments,531 RANDOLPH RD,SILVER SPRING,20904,144898,-77.02025539,39.06753688,11/22/2017,,3,1,129,31,0.12,0.28,26,0,0,compliant,"(39.0675, -77.0203)"
17656,"Glenview Avenue, 8512",8512 Glenview Ave,Takoma Park,20912,148714,-77.00039054,38.99633212,7/17/2018,,1,0,5,5,5.4,1.64,0,0.2,0,troubled,"(38.9963, -77.0004)"
17455,Thayer Terrace,525 Thayer Ave,Silver Spring,20910,141076,-77.01475632,38.99407697,5/25/2017,,1,0,74,21,3.38,1.79,1,0.33,0.23,troubled,"(38.9941, -77.0148)"
17615,Ridgewood Apartments,4021 Postgate Ter,Silver Spring,20906,152902,-77.07738462,39.08778583,2/13/2019,,2,1,274,274,1.79,1.76,49,0,0.01,at-risk,"(39.0878, -77.0774)"
17320,"Greenwood Avenue, 8503",8503 Greenwood Ave,Takoma Park,20912,146191,-77.00120684,38.99525305,3/20/2018,,1,0,5,5,1,2.6,0,0,0.4,troubled,"(38.9953, -77.0012)"
17288,"Avondale Street, 4523",4523 Avondale St,Bethesda,20814,146624,-77.09327428,38.98631979,5/2/2018,,2,1,4,4,1.25,2,0,0,0,at-risk,"(38.9863, -77.0933)"
16956,"Georgia Avenue, 20215",20215 Georgia Ave,Brookeville,20833,154040,-77.06448567,39.18755031,3/18/2019,,1,0,4,5,9.4,1.93,0,0,0,troubled,"(39.1876, -77.0645)"
41711,Burnt Mills Crossing I I,10700 Venetia Mill Cir,Silver Spring,20901,140495,-77.00224236,39.03101293,5/23/2017,,2,0,40,10,2.3,1.48,1,0,0,at-risk,"(39.031, -77.0022)"
17431,"Quebec Terrace, 1006",1006 Quebec Ter,Silver Spring,20903,139438,-76.9898379,38.99978851,3/22/2017,,1,0,14,14,4.64,1.66,0,0.07,0,troubled,"(38.9998, -76.9898)"
17752,"Avondale Street, 4512-4514",4512 Avondale St,Bethesda,20814,148707,-77.09283046,38.98594123,7/19/2018,,3,1,4,5,1.8,1.44,0,0,0,compliant,"(38.9859, -77.0928)"
17309,"Glenville Road, 8807",8807 Glenville Rd,Silver Spring,20901,154035,-76.99662903,38.99984655,4/10/2019,,2,1,4,4,0.5,1.75,2,0,0,at-risk,"(38.9998, -76.9966)"
17817,"Greenwood Avenue, 8410",8410 Greenwood Ave,Takoma Park,20912,139519,-77.00168532,38.99491806,3/6/2017,,2,0,5,5,2.4,1.2,1,0,0,at-risk,"(38.9949, -77.0017)"
95883,Holstein House,7903 Holstein St,Takoma Park,20912,138312,-76.99881787,38.98863865,1/13/2017,,3,1,1,1,0,0,1,0,0,compliant,"(38.9886, -76.9988)"
17508,"Thayer Avenue, 810",810 Thayer Ave,Silver Spring,20910,138290,-77.02301721,38.99271923,2/10/2017,,1,0,3,3,4.33,1.53,0,0,0.33,troubled,"(38.9927, -77.023)"
18246,Hamptons Phase I I I,19773 Crystal Rock Dr,Germantown,20874,146691,-77.26192142,39.18057265,7/12/2018,,3,1,232,56,1.51,1.49,11,0,0.05,compliant,"(39.1806, -77.2619)"
17679,"Plymouth Street, 8807",8807 Plymouth St,Silver Spring,20901,146630,-77.00685454,39.00097215,4/16/2018,,2,1,6,6,1.5,1.75,1,0,0.16,at-risk,"(39.001, -77.0069)"
105594,North Bethesda Market,11351 WOODGLEN DR,ROCKVILLE,20852,146687,-77.11304772,39.04298445,5/31/2018,,3,1,411,105,0.29,0.49,75,0,0,compliant,"(39.043, -77.113)"
17298,Mill Creek Garden Apartments,17654 Amity Dr,Gaithersburg,20877,154042,-77.16917367,39.14367382,3/25/2019,,2,1,148,39,1.79,2.33,3,0.05,0,at-risk,"(39.1437, -77.1692)"
17327,Manor Apartments,25801 Wright Rd,Damascus,20872,146573,-77.21008883,39.28007047,4/2/2018,,2,1,3,3,0.66,1.66,1,0,0,at-risk,"(39.2801, -77.2101)"
17333,"Avondale Street, 4531",4531 Avondale St,Bethesda,20814,146625,-77.09365767,38.98627828,4/23/2018,,2,1,4,4,2.75,1.29,1,0,0,at-risk,"(38.9863, -77.0937)"
17503,"Prospect Street, 911",911 Prospect St,Takoma Park,20912,138308,-76.9986736,38.98921525,2/9/2017,,1,0,2,2,2.5,1.6,0,0,0,troubled,"(38.9892, -76.9987)"
100380,"Silver Spring Avenue, 605",605 SILVER SPRING AVE,SILVER SPRING,20910,154299,-77.01367938,38.99244064,4/2/2019,,1,1,4,4,2.5,1.7,0,0,0,troubled,"(38.9924, -77.0137)"
17495,"Long Branch Parkway, 7916",7916 Long Branch Pkwy,Takoma Park,20912,154266,-76.99678789,38.98803457,4/4/2019,,3,1,3,3,0,0,3,0,0,compliant,"(38.988, -76.9968)"
108658,Liberty Mill Apartments,19520 WATERS RD,GERMANTOWN,20874,,-77.2739917,39.17605232,,,3,0,303,,,,,,,compliant,"(39.1761, -77.274)"
18140,"Flower Avenue, 8415",8415 Flower Ave,Takoma Park,20912,153879,-77.00219202,38.99510201,5/6/2019,,1,1,5,5,3,1.93,0,0,0,troubled,"(38.9951, -77.0022)"
17611,"Garland Avenue, 8315",8315 Garland Ave,Takoma Park,20912,154053,-77.00010907,38.99421516,4/2/2019,,3,1,3,5,1.6,1.5,1,0,0,compliant,"(38.9942, -77.0001)"
50460,"Prospect Street, 903",903 Prospect St,Takoma Park,20912,139620,-76.99948646,38.98926655,3/21/2017,,1,0,1,1,5,2,0,0,0,troubled,"(38.9893, -76.9995)"
17384,Battery Gardens,4918 Battery Ln,Bethesda,20814,147567,-77.09956519,38.99181699,6/13/2018,,2,1,62,17,1.76,1.63,4,0,0,at-risk,"(38.9918, -77.0996)"
17683,"Plymouth Street, 8803",8803 Plymouth St,Silver Spring,20901,146661,-77.00697064,39.00063167,4/3/2018,,2,1,6,6,2,1.73,1,0,0.16,at-risk,"(39.0006, -77.007)"
17574,Fawcett Apartments,10411 Fawcett St,Kensington,20895,145336,-77.07323122,39.02673424,1/19/2018,,2,1,12,14,1.64,1.69,1,0,0.14,at-risk,"(39.0267, -77.0732)"
17468,"Wabash Avenue, 901",901 Wabash Ave,Takoma Park,20912,139623,-77.00096053,38.99379507,3/29/2017,,1,0,2,2,4,1.62,0,0,0.5,troubled,"(38.9938, -77.001)"
17570,"Quebec Terrace, 1010",1010 Quebec Ter,Silver Spring,20903,139439,-76.98941207,39.00025525,3/30/2017,,1,0,14,14,5.35,1.74,0,0.14,0,troubled,"(39.0003, -76.9894)"
108315,Quest Arcadian,13615 COLGATE WAY,SILVER SPRING,20904,146174,0,0,4/6/2018,,3,1,432,103,1.4,1.45,15,0,0.01,compliant,"(0.0, 0.0)"
17389,Glen Aldon,4858 Battery Ln,Bethesda,20814,154033,-77.09767306,38.99234577,4/16/2019,,2,1,66,18,1.5,1.8,3,0,0,at-risk,"(38.9923, -77.0977)"
18227,"Holstein Street, 7902",7902 Holstein St,Takoma Park,20912,138372,-76.99925761,38.98856176,4/10/2017,,1,0,2,1,30,1.66,0,0,0,troubled,"(38.9886, -76.9993)"
17962,"Garland Avenue, 8312",8312 Garland Ave,Takoma Park,20912,151016,-77.00058053,38.99431126,12/20/2018,,2,1,3,3,1,3.33,0,0,0,at-risk,"(38.9943, -77.0006)"
17347,Glenmont Crossing,2100 Georgian Woods Pl,Silver Spring,20902,154034,-77.04482214,39.05477197,4/1/2019,,2,1,97,25,2.6,1.47,4,0,0,at-risk,"(39.0548, -77.0448)"
88246,Yorkshire II,11401 July Dr,Silver Spring,20904,149957,-76.98171871,39.04160138,9/17/2018,,3,1,97,24,0.41,0.7,17,0,0.04,compliant,"(39.0416, -76.9817)"
17823,"Glenville Road, 8806",8806 Glenville Rd,Silver Spring,20901,154055,-76.99725183,39.00002504,4/17/2019,,2,1,8,8,2.25,1.27,2,0,0,at-risk,"(39.0, -76.9973)"
90131,Enclave Silver Spring,11225 Oak Leaf Dr,Silver Spring,20901,154158,-76.99532831,39.03895774,3/7/2019,,1,0,1119,1082,2.49,1.55,274,0.13,0.12,troubled,"(39.039, -76.9953)"
17977,Barbizon Apartments,735 Sligo Ave,Silver Spring,20910,150071,-77.0197621,38.99067429,5/6/2019,,2,1,74,20,0.55,1.8,2,0,0.05,at-risk,"(38.9907, -77.0198)"
18128,"Quebec Terrace, 1000",1000 Quebec Ter,Silver Spring,20903,139436,-76.98979227,38.99903343,3/21/2017,,1,0,10,10,6.9,1.42,0,0.3,0,troubled,"(38.999, -76.9898)"
106915,Flats At Bethesda Avenue,7170 WOODMONT AVE,BETHESDA,20814,145353,-77.09510313,38.98064842,1/25/2018,,3,1,162,40,0.15,0.16,35,0,0,compliant,"(38.9806, -77.0951)"
108600,The Sanctuary,426 UNIVERSITY BLVD E,SILVER SPRING,20901,153859,0,0,5/20/2019,,3,1,75,0,0,0,0,0,0,compliant,"(0.0, 0.0)"
17355,Carroll Apartments,8733 Carroll Ave,Silver Spring,20903,139627,-76.99050305,38.99901977,4/27/2017,,1,0,52,27,3.51,1.53,2,0.03,0.07,troubled,"(38.999, -76.9905)"
17585,Montgomery Club V I I,9901 Killarney Ln,Gaithersburg,20877,154044,-77.2061426,39.13368172,4/15/2019,,1,1,112,31,1.61,1.69,6,0.29,0,troubled,"(39.1337, -77.2061)"
17469,"Hudson Avenue, 908",908 Hudson Ave,Takoma Park,20912,139607,-77.00055586,38.99297687,3/23/2017,,1,0,6,6,2.5,1.61,1,0,0.33,troubled,"(38.993, -77.0006)"
108282,Villaflores,8808 BRADFORD RD,SILVER SPRING,20901,139639,-77.00640063,39.00102435,3/21/2017,,3,1,6,12,1,0.87,5,0,0,compliant,"(39.001, -77.0064)"
17465,"Sligo Avenue, 609",609 Sligo Ave,Silver Spring,20910,141073,-77.0132394,38.99155659,6/12/2017,,1,0,4,4,2.25,1.87,0,0,0,troubled,"(38.9916, -77.0132)"
90462,"Plymouth Street, 8705",8705 Plymouth St,Silver Spring,20901,154285,-77.00741386,38.99933294,4/26/2019,,2,1,6,6,0.5,2,0,0,0,at-risk,"(38.9993, -77.0074)"
17187,Blair House,8201 16Th St,Silver Spring,20910,153888,-77.03455354,38.99195584,4/11/2019,,1,1,313,74,2.1,1.82,5,0.05,0.02,troubled,"(38.992, -77.0346)"
17276,Halpine View,13013 Crookston Ln,Rockville,20851,147619,-77.11128588,39.06867449,9/12/2018,,3,1,562,147,0.78,1.15,74,0.01,0.06,compliant,"(39.0687, -77.1113)"
17300,Fields Of Bethesda,5079 Bradley Blvd,Bethesda,20815,153882,-77.10036396,38.97784915,4/25/2019,,3,1,369,80,0.45,0.99,46,0,0.03,compliant,"(38.9778, -77.1004)"
17310,University Manor,820 University Blvd E,Silver Spring,20903,152897,-76.99288739,38.99516036,3/20/2019,,3,1,136,133,1.81,1.38,33,0.17,0.03,compliant,"(38.9952, -76.9929)"
17368,Waterford Tower,14000 Castle Blvd,Silver Spring,20904,154220,-76.94211034,39.08588173,5/10/2019,,2,1,143,36,1.16,1.83,9,0.02,0,at-risk,"(39.0859, -76.9421)"
79327,Elms At Clarksburg Village,12200 Elm Forest Ct,Clarksburg,20871,152131,-77.25212149,39.22871291,12/13/2018,,3,1,450,88,0.23,0.3,74,0,0,compliant,"(39.2287, -77.2521)"
38968,Pinnacle Town Center,19860 Century Blvd,Germantown,20874,154249,-77.2648362,39.18233333,5/2/2019,,3,1,328,86,0.69,1.01,41,0,0,compliant,"(39.1823, -77.2648)"
17462,"Flower Avenue, 7905",7905 Flower Ave,Takoma Park,20912,153877,-77.0006966,38.98885006,3/19/2019,,2,1,3,1,1,1,0,0,0,compliant,"(38.9889, -77.0007)"
18011,Falkland Chase West,8305 16Th St,Silver Spring,20910,146202,-77.03627506,38.99276173,4/13/2018,,3,1,121,34,0.85,1.07,12,0,0.02,compliant,"(38.9928, -77.0363)"
17460,"Garland Avenue, 7909",7909 Garland Ave,Takoma Park,20912,150996,-76.9982233,38.98922072,11/1/2018,,1,1,3,3,3,2.22,0,0,0,troubled,"(38.9892, -76.9982)"
17972,Rock Creek Woods,13206 Twinbrook Pkwy,Rockville,20851,154289,-77.11331262,39.07190466,4/16/2019,,3,1,269,67,0.76,1.1,28,0.05,0.02,compliant,"(39.0719, -77.1133)"
17555,Stonecreek Club Apartments,12840 Locbury Cir,Germantown,20874,152165,-77.26488979,39.18618603,5/11/2019,,2,1,240,59,0.86,1.65,16,0.05,0.01,at-risk,"(39.1862, -77.2649)"
88897,Avery Park Apartments,1801 Hampshire Green Ln,Silver Spring,20903,154495,-76.97386431,39.01561116,5/21/2019,,1,1,294,77,2.16,1.69,14,0.09,0,troubled,"(39.0156, -76.9739)"
17284,"Silver Spring Avenue, 761",761 Silver Spring Ave,Silver Spring,20910,150069,-77.02173979,38.99207427,9/28/2018,,2,1,3,4,0.5,2,0,0,0,at-risk,"(38.9921, -77.0217)"
17815,"Avondale Street, 4515",4515 Avondale St,Bethesda,20814,148708,-77.09289787,38.98636674,8/1/2018,,3,1,4,4,0.5,0.75,2,0,0,compliant,"(38.9864, -77.0929)"
58698,"Garland Avenue, 8008",8008 Garland Ave,Takoma Park,20912,154049,-76.99913446,38.99010483,4/26/2019,,2,1,3,3,0.66,2,0,0,0,at-risk,"(38.9901, -76.9991)"
42982,"Long Branch Parkway, 7920",7920 Long Branch Pkwy,Takoma Park,20912,154267,-76.99704825,38.9882789,3/29/2019,,3,1,1,1,0,0,1,0,0,compliant,"(38.9883, -76.997)"
50345,"Houston Avenue, 807",807 Houston Ave,Takoma Park,20912,139564,-77.00097105,38.99103839,3/21/2017,,3,1,2,3,0,0,2,0,0,compliant,"(38.991, -77.001)"
18009,"Fawcett Street, 10410",10410 Fawcett St,Kensington,20895,146161,-77.07404438,39.02677489,3/15/2018,,3,1,7,9,0.66,0.59,5,0,0,compliant,"(39.0268, -77.074)"
17291,Garland Towers,8221 Garland Ave,Takoma Park,20912,151790,-76.99966925,38.9927215,11/15/2018,,3,1,25,6,0,0,6,0,0,compliant,"(38.9927, -76.9997)"
95888,"Kennebec Avenue, 1001",1001 KENNEBEC AVE,TAKOMA PARK,20912,138370,-76.99833232,38.99011035,2/2/2017,,1,0,3,3,2.66,2.25,0,0,0,troubled,"(38.9901, -76.9983)"
17481,"Silver Spring Avenue, 511",511 Silver Spring Ave,Silver Spring,20910,142392,-77.01265914,38.99315466,8/30/2017,,3,1,6,7,1.14,1.16,2,0,0.14,compliant,"(38.9932, -77.0127)"
17488,"Silver Spring Avenue, 601",601 Silver Spring Ave,Silver Spring,20910,142394,-77.01354569,38.99249283,7/28/2017,,3,1,4,4,0.75,0.75,3,0,0,compliant,"(38.9925, -77.0135)"
31124,Pond Ridge,18100 Pond Ridge Ct,Olney,20832,153764,-77.05019578,39.15563236,4/23/2019,,3,1,40,6,0.5,1,3,0,0,compliant,"(39.1556, -77.0502)"
17401,Dorset Apartments,4757 Chevy Chase Dr,Chevy Chase,20815,147529,-77.09357536,38.9771626,7/10/2018,,3,1,69,17,0.35,0.63,12,0,0.05,compliant,"(38.9772, -77.0936)"
17366,Hampshire West,1432 Hampshire West Ct,Silver Spring,20903,154229,-76.9823585,39.00844206,4/9/2019,,3,1,184,47,0.53,0.96,30,0.04,0,compliant,"(39.0084, -76.9824)"
17317,Woodfield Apartments LLC,23901 Woodfield Rd,Gaithersburg,20882,154255,-77.19298525,39.24942411,5/16/2019,,3,1,4,5,0.2,0.6,4,0,0,compliant,"(39.2494, -77.193)"
17643,Lenox Park,1400 East West Hwy,Silver Spring,20910,146555,-77.03339681,38.99370522,6/14/2018,,3,1,406,91,0.3,1.49,23,0.02,0.03,compliant,"(38.9937, -77.0334)"
17158,Arcola Towers,1135 University Blvd W,Silver Spring,20902,153891,-77.02869574,39.03634752,3/21/2019,,3,1,141,36,0.58,0.64,22,0.11,0,compliant,"(39.0363, -77.0287)"
17644,Drings Reach,3407 Robey Ter,Silver Spring,20904,152886,-76.93852234,39.08294004,2/28/2019,,3,1,105,101,1.26,1.31,41,0,0,compliant,"(39.0829, -76.9385)"
18217,"Bonifant Street, 939",939 Bonifant St,Silver Spring,20910,143630,-77.02537147,38.99412456,9/22/2017,,3,1,2,2,1,1,0,0,0,compliant,"(38.9941, -77.0254)"
17547,The Birches,1532 Heather Hollow Cir,Silver Spring,20904,154293,-76.98097153,39.04072337,5/23/2019,,3,1,226,57,1.08,1.14,31,0.01,0,compliant,"(39.0407, -76.981)"
17607,"Quebec Terrace, 1017",1017 Quebec Ter,Silver Spring,20903,139442,-76.98820513,39.00011234,3/22/2017,,1,0,4,4,4.5,2.22,0,0,0.25,troubled,"(39.0001, -76.9882)"
17403,Glen Brook,4890 Battery Ln,Bethesda,20814,146533,-77.09856969,38.9919551,5/15/2018,,3,1,94,24,1,1.12,11,0,0,compliant,"(38.992, -77.0986)"
17287,"Avondale Street, 4519",4519 Avondale St,Bethesda,20814,146623,-77.09307725,38.98634463,5/2/2018,,3,1,4,4,0.75,0.83,2,0,0,compliant,"(38.9863, -77.0931)"
17753,"Garland Avenue, 8314",8314 Garland Ave,Takoma Park,20912,150980,-77.00054531,38.99446778,10/4/2018,,3,1,5,5,0,0,5,0,0,compliant,"(38.9945, -77.0005)"
34400,"Lewis Drive, 10325",10325 Lewis Dr,Damascus,20872,154460,-77.21479232,39.28992934,5/3/2019,,3,1,2,2,0,0,2,0,0,compliant,"(39.2899, -77.2148)"
17697,"Chevy Chase Drive, 4830",4830 Chevy Chase Dr,Chevy Chase,20815,148729,-77.09629012,38.97655083,7/11/2018,,3,1,17,3,1,0.88,1,0,0,compliant,"(38.9766, -77.0963)"
17402,"Wisconsin Avenue, 8200",8200 Wisconsin Ave,Bethesda,20814,146532,-77.09639533,38.99192398,6/7/2018,,3,1,245,64,0.59,0.83,34,0.03,0,compliant,"(38.9919, -77.0964)"
46159,Rosedale Park,4720 Rosedale Ave,Bethesda,20814,152169,-77.09550922,38.99233107,12/5/2018,,3,1,164,39,0.2,0.2,35,0,0,compliant,"(38.9923, -77.0955)"
17176,Londonderry,17041 Downing St,Gaithersburg,20877,146167,-77.20859842,39.13601316,5/24/2018,,3,1,529,132,1.01,1.07,53,0.01,0,compliant,"(39.136, -77.2086)"
17453,"Silver Spring Avenue, 515",515 Silver Spring Ave,Silver Spring,20910,142393,-77.01290895,38.99305854,8/31/2017,,3,1,5,5,1,0.84,2,0,0,compliant,"(38.9931, -77.0129)"
17595,"Mt. Vernon Avenue, 26026-28",26026 Mount Vernon Ave,Damascus,20872-2010,152166,-77.20022648,39.28374262,11/19/2018,,3,1,2,1,0,0,2,0,0,compliant,"(39.2837, -77.2002)"
17970,"Hampden Lane, 4911",4911 Hampden Ln,Bethesda,20814,146550,-77.0969952,38.98289009,4/13/2018,,3,1,6,6,1,0.88,2,0,0,compliant,"(38.9829, -77.097)"
47480,Gramax Towers,8060 13Th St,Silver Spring,20910,150072,-77.02788116,38.98774847,1/29/2019,,3,1,180,43,0.6,1.02,16,0,0,compliant,"(38.9877, -77.0279)"
17376,Village Square West,12401 Village Square Ter,Rockville,20852,147622,-77.10913637,39.05843542,6/28/2018,,3,1,403,82,0.74,1.07,40,0,0.04,compliant,"(39.0584, -77.1091)"
55327,"Prospect Street, 909",909 Prospect St,Takoma Park,20912,138946,-76.99882489,38.98918504,2/8/2017,,3,1,2,1,0,0,1,0,0,compliant,"(38.9892, -76.9988)"
17463,"Garland Avenue, 8302",8302 Garland Ave,Takoma Park,20912,151011,-77.00059457,38.99316631,10/22/2018,,3,1,6,6,0.66,0.5,3,0,0,compliant,"(38.9932, -77.0006)"
17256,Forest Park Apartment,9316 Piney Branch Rd,Silver Spring,20903,149953,-76.98663694,39.00130422,10/2/2018,,3,1,189,46,0.91,1.14,22,0.06,0.04,compliant,"(39.0013, -76.9866)"
18221,"Greenwood Avenue, 8105",8105 Greenwood Ave,Takoma Park,20912,139476,-76.99991554,38.9907913,9/21/2017,,3,1,6,6,0.33,0.33,5,0,0,compliant,"(38.9908, -76.9999)"
17551,"Sunrise Village House, LLC",19310 Club House Rd,Montgomery Village,20886,147582,-77.20271594,39.17364927,7/3/2018,,3,1,68,22,0.09,0.13,20,0,0,compliant,"(39.1736, -77.2027)"
17512,"Flower Avenue, 8303",8303 Flower Ave,Takoma Park,20912,153878,-77.00192802,38.99288076,4/4/2019,,3,1,6,6,0.16,0.5,5,0,0,compliant,"(38.9929, -77.0019)"
90468,10111 Darnestown Road,10111 Darnestown Rd,Rockville,20850,154291,-77.2081312,39.0980391,4/16/2019,,3,1,1,1,0,0,1,0,0,compliant,"(39.098, -77.2081)"
18222,"Schrider Street, 8101",8101 Schrider St,Silver Spring,20910,141064,-77.0142669,38.99127596,5/25/2017,,3,1,6,6,0.5,0.5,3,0,0,compliant,"(38.9913, -77.0143)"
17702,The Encore At Wheaton Station,10898 Bucknell Dr,Silver Spring,20902,146158,-77.04674807,39.03474871,5/16/2018,,3,1,182,44,0.13,0.22,39,0,0.02,compliant,"(39.0347, -77.0467)"
18245,Hamptons Phase I I,19773 Crystal Rock Dr,Germantown,20874,146690,-77.26192142,39.18057265,7/11/2018,,3,1,245,54,1.24,1.32,18,0.03,0.01,compliant,"(39.1806, -77.2619)"
18220,"Georgia Avenue, 20514 & 20520",20514 Georgia Ave,Brookeville,20833,146197,-77.06641833,39.19270623,3/8/2018,,3,1,8,7,1.28,1.01,3,0,0.14,compliant,"(39.1927, -77.0664)"
17183,Park Wayne,2 Manchester Pl,Silver Spring,20901,146184,-77.00993547,39.0010221,4/19/2018,,3,1,221,56,0.32,0.34,43,0,0.03,compliant,"(39.001, -77.0099)"
17737,"Silver Spring Avenue, 628",628 Silver Spring Ave,Silver Spring,20910,142399,-77.01526953,38.99172929,8/8/2018,,3,1,4,5,0,0,5,0,0,compliant,"(38.9917, -77.0153)"
17014,"Glenville Road, 8804",8804 Glenville Rd,Silver Spring,20901,151851,-76.99737151,38.99992619,11/29/2018,,3,1,4,2,1,0.5,1,0,0,compliant,"(38.9999, -76.9974)"
17012,"Hudson Avenue, 907",907 Hudson Ave,Takoma Park,20912,152892,-77.00035182,38.9926254,1/23/2019,,3,1,3,3,0,0,3,0,0,compliant,"(38.9926, -77.0004)"
76069,Lasko Manor,4913 Hampden Ln,Bethesda,20814,145773,-77.09723444,38.98288989,2/2/2018,,3,1,12,11,1.45,0.99,4,0,0.09,compliant,"(38.9829, -77.0972)"
17332,"Garland Avenue, 8007",8007 Garland Ave,Takoma Park,20912,151020,-76.99864544,38.99006366,10/2/2018,,3,1,3,3,0,0,3,0,0,compliant,"(38.9901, -76.9986)"
62107,Vistas At White Oak IV,11434 Lockwood Dr,Silver Spring,20904,144894,-76.98692204,39.0411793,12/12/2017,,3,1,175,43,1.13,1.15,13,0.09,0,compliant,"(39.0412, -76.9869)"
17758,"Ruatan Street, 1054",1054 Ruatan St,Silver Spring,20903,150987,0,0,10/30/2018,,1,1,4,5,7.8,1.71,0,0.4,0.4,troubled,"(0.0, 0.0)"
17524,"Dale Drive, 529",529 Dale Dr,Silver Spring,20910,140999,-77.01739329,39.00077886,6/9/2017,,3,1,9,9,0.66,0.55,4,0,0,compliant,"(39.0008, -77.0174)"
17978,Dalton Apartments,733 Sligo Ave,Silver Spring,20910,141000,-77.01907956,38.99068264,6/6/2017,,3,1,94,25,1.36,1.32,8,0.12,0.08,compliant,"(38.9907, -77.0191)"
17171,Cambridge Square,4901 Battery Ln,Bethesda,20814,147562,-77.09912375,38.99315175,6/20/2018,,3,1,87,22,0.45,0.87,16,0,0,compliant,"(38.9932, -77.0991)"
17493,"Kennebec Avenue, 811",811 Kennebec Ave,Takoma Park,20912,154264,-76.99983812,38.99022843,4/2/2019,,3,1,1,1,0,0,1,0,0,compliant,"(38.9902, -76.9998)"
17430,"Hudson Avenue, 807",807 Hudson Ave,Takoma Park,20912,138302,-77.00156566,38.99236729,1/5/2017,,3,1,2,1,2,1.5,0,0,0,compliant,"(38.9924, -77.0016)"
58419,Inigo's Crossing,5405 Tuckerman Ln,Rockville,20852,154459,-77.10819243,39.02910962,6/27/2019,,3,1,473,94,0.29,0.99,49,0.01,0,compliant,"(39.0291, -77.1082)"
17535,"Glenville Road, 8808",8808 Glenville Rd,Silver Spring,20901,151853,-76.99714625,39.0001129,11/29/2018,,3,1,4,4,0,0,4,0,0,compliant,"(39.0001, -76.9971)"
17273,Villa Nova,11513 Lockwood Dr,Silver Spring,20904,140498,-76.9850896,39.04063834,5/17/2017,,3,1,22,22,0.18,0.13,19,0,0,compliant,"(39.0406, -76.9851)"
17314,"Greenwood Avenue, 8003",8003 Greenwood Ave,Takoma Park,20912,139473,-77.00016181,38.98977813,3/20/2017,,3,1,2,2,0,0,2,0,0,compliant,"(38.9898, -77.0002)"
47208,"Chevy Chase Drive, 4810",4810 Chevy Chase Dr,Chevy Chase,20815,148730,-77.09516472,38.9767165,6/29/2018,,3,1,3,3,1.66,1.4,0,0,0,compliant,"(38.9767, -77.0952)"
65106,The Cameron,8710 Cameron St,Silver Spring,20910,154464,-77.02887794,38.99928292,5/2/2019,,3,1,324,99,0.43,0.48,73,0,0,compliant,"(38.9993, -77.0289)"
17203,Fields Of Silver Spring,2105 Hildarose Dr,Silver Spring,20902,149951,-77.04468058,39.0205098,8/21/2018,,3,1,221,57,1.24,1.1,23,0.1,0.07,compliant,"(39.0205, -77.0447)"
17283,Rock Creek Terrace,12630 Veirs Mill Rd,Rockville,20853,152901,-77.09554698,39.06245309,2/5/2019,,3,1,526,126,0.86,1.39,39,0.06,0,compliant,"(39.0625, -77.0955)"
95496,Paramount Properties Apartments,1004 Houston Ave,Takoma Park,20912,139558,-76.9990254,38.99188408,6/2/2017,,3,1,4,4,0.75,0.5,2,0,0,compliant,"(38.9919, -76.999)"
17016,"Garland Avenue, 8103",8103 Garland Ave,Takoma Park,20912,152893,-76.99887059,38.99078029,3/21/2019,,3,1,1,1,0,0,1,0,0,compliant,"(38.9908, -76.9989)"
17326,"Greenwood Avenue, 8402",8402 Greenwood Ave,Takoma Park,20912,139511,-77.00153756,38.99431678,3/29/2017,,3,1,5,2,1,1,0,0,0,compliant,"(38.9943, -77.0015)"
18232,Oak Ridge Apartments,1014 Quebec Ter,Silver Spring,20903,146188,-76.98866607,39.0004803,4/11/2018,,3,1,113,112,1.79,1.36,27,0.1,0,compliant,"(39.0005, -76.9887)"
17161,"Schuyler Rd., 100-102",100 Schuyler Rd,Silver Spring,20901,139451,-77.0117742,39.00324794,3/9/2017,,3,1,26,10,0.9,0.61,5,0,0,compliant,"(39.0032, -77.0118)"
65228,"Domer Avenue, 404",404 Domer Ave,Takoma Park,20912,138926,-77.00145665,38.99697184,2/2/2017,,3,1,3,3,0,0,3,0,0,compliant,"(38.997, -77.0015)"
17633,Five Star Premier Residences Of Chevy Chase,8100 Connecticut Ave,Chevy Chase,20815,149262,-77.07826253,38.99255529,8/1/2018,,3,0,318,82,0.52,0.8,50,0,0.01,compliant,"(38.9926, -77.0783)"
17475,"Flower Avenue, 8609",8609 Flower Ave,Takoma Park,20912,138937,-77.00292042,38.99699926,2/27/2017,,3,1,3,3,1.66,1.5,0,0,0,compliant,"(38.997, -77.0029)"
17637,Burnt Mills Crossing,10713 Venetia Mill Cir,Silver Spring,20901,140490,-77.00267186,39.03079411,5/23/2017,,3,1,96,24,0.7,1.01,11,0.04,0.04,compliant,"(39.0308, -77.0027)"
17341,"Greenwood Avenue, 8208",8208 Greenwood Ave,Takoma Park,20912,138942,-77.00100269,38.99192525,2/21/2017,,3,1,4,4,0.25,0.75,3,0,0,compliant,"(38.9919, -77.001)"
78103,2201 Spencerville Road,2201 Spencerville Rd,Spencerville,20868,153887,-76.96639421,39.11586534,3/18/2019,,3,1,3,3,0,0,3,0,0,compliant,"(39.1159, -76.9664)"
18016,Northlake Apartments,12624 Grey Eagle Ct,Germantown,20874,149261,-77.26320208,39.16829595,8/29/2018,,3,1,304,77,0.88,0.97,39,0,0.01,compliant,"(39.1683, -77.2632)"
17945,"Clayborn Avenue, 402",402 Clayborn Ave,Takoma Park,20912,139534,-77.00090425,38.99511303,3/21/2017,,3,1,3,3,0,0,3,0,0,compliant,"(38.9951, -77.0009)"
107162,804 Kennebec,804 KENNEBEC AVE,TAKOMA PARK,20912,138315,0,0,1/24/2017,,3,1,3,3,0,0,3,0,0,compliant,"(0.0, 0.0)"
18219,"Bonifant Street, 941-",941 Bonifant St,Silver Spring,20910,143631,-77.02549106,38.99407512,9/22/2017,,3,1,2,2,0,0,2,0,0,compliant,"(38.9941, -77.0255)"
17734,Glenmont Westerly,2309 Shorefield Rd,Silver Spring,20902,147634,-77.04971514,39.05304606,5/30/2018,,3,1,101,22,0,0,34,0,0,compliant,"(39.053, -77.0497)"
81225,Falkland Chase Apartments North,8305 16Th St,Silver Spring,20910,150018,-77.03627506,38.99276173,10/2/2018,,3,1,182,46,0.54,0.66,29,0.02,0.02,compliant,"(38.9928, -77.0363)"
61346,Upstairs At Bethesda Row,7131 Arlington Rd,Bethesda,20814,149956,-77.09840741,38.98125469,10/9/2018,,3,1,180,25,0.64,1.23,13,0,0,compliant,"(38.9813, -77.0984)"
17774,"Glenville Road, 8814",8814 Glenville Rd,Silver Spring,20901,154058,-76.99699146,39.00035727,4/17/2019,,3,1,2,3,0,0,3,0,0,compliant,"(39.0004, -76.997)"
17201,"Schrider Street, 8221",8221 Schrider St,Silver Spring,20910,141071,-77.01447464,38.99295949,5/31/2017,,3,1,4,4,0.25,0.5,2,0,0,compliant,"(38.993, -77.0145)"
17400,Kentwood Apartments,4750 Chevy Chase Dr,Chevy Chase,20815,150074,-77.09389469,38.9765775,10/5/2018,,3,1,62,12,0.16,0.08,11,0,0,compliant,"(38.9766, -77.0939)"
17312,"Quebec Terrace, 1008",1008 Quebec Ter,Silver Spring,20903,154294,0,0,4/17/2019,,1,1,14,13,5.15,1.86,0,0.15,0.23,troubled,"(0.0, 0.0)"
17017,"Greenwood Avenue, 8001",8001 Greenwood Ave,Takoma Park,20912,139472,-77.00007036,38.98959418,3/20/2017,,3,1,5,5,0.2,0.8,3,0,0,compliant,"(38.9896, -77.0001)"
48102,Willow Manor At Colesville,601 Randolph Rd,Silver Spring,20904,140499,-77.02073589,39.06630748,6/1/2017,,3,1,83,21,0,0,21,0,0,compliant,"(39.0663, -77.0207)"
50418,"Greenwood Avenue, 7901",7901 Greenwood Ave,Takoma Park,20912,139470,-76.99949338,38.98835307,3/20/2017,,3,1,2,2,0,0,2,0,0,compliant,"(38.9884, -76.9995)"
17315,Monterrey Apartments,7925 Chicago Ave,Silver Spring,20910,141003,-77.01911797,38.98960634,6/6/2017,,3,1,23,13,0.61,0.92,5,0,0,compliant,"(38.9896, -77.0191)"
17598,"Schrider Street, 8201",8201 Schrider St,Silver Spring,20910,141066,-77.01415782,38.99227859,6/30/2017,,3,1,11,11,0.09,0,11,0,0,compliant,"(38.9923, -77.0142)"
17399,Aldon Apartments,4701 Bradley Blvd,Chevy Chase,20815,146177,-77.09314442,38.97851106,3/13/2018,,3,1,88,23,1.52,1.08,9,0,0.08,compliant,"(38.9785, -77.0931)"
17231,Wayne Manchester Towers,25 Wayne Ave E,Silver Spring,20901,146494,-77.00863143,38.99987649,4/24/2018,,3,1,226,58,1.01,0.96,23,0.06,0,compliant,"(38.9999, -77.0086)"
17182,Goodacre Apartments,510 Domer Ave,Takoma Park,20912,152895,-77.00009318,38.99694081,2/27/2019,,3,1,156,151,1.52,1.29,51,0.07,0.05,compliant,"(38.9969, -77.0001)"
17720,"Bradford Road, 8806",8806 Bradford Rd,Silver Spring,20901,139638,-77.00645691,39.00086783,4/12/2017,,3,1,6,6,1.16,1.19,1,0,0,compliant,"(39.0009, -77.0065)"
17029,Courts Of Madison I I,641 Sligo Ave,Silver Spring,20910,140997,-77.01601174,38.99119105,6/8/2017,,3,1,19,9,0.66,0.59,5,0,0,compliant,"(38.9912, -77.016)"
17609,Barron House,8306 Barron St,Takoma Park,20912,153881,-76.9979312,38.99257321,3/22/2019,,3,1,22,6,1.16,1.22,2,0,0.16,compliant,"(38.9926, -76.9979)"
18131,"Greenwood Circle, 814",814 Greenwood Cir,Takoma Park,20912,139529,-77.00143542,38.9918017,4/4/2017,,1,0,5,5,2.8,2.42,0,0,0.6,troubled,"(38.9918, -77.0014)"
17442,"Greenwood Avenue, 8520",8520 Greenwood Ave,Takoma Park,20912,139526,-77.00212166,38.99647761,3/30/2017,,3,1,3,3,0,0,3,0,0,compliant,"(38.9965, -77.0021)"
82144,Gallery Bethesda,4800 Auburn Ave,Bethesda,20814,147541,-81.52919213,37.57726919,6/13/2018,,3,1,234,22,0.22,0.09,20,0,0,compliant,"(37.5773, -81.5292)"
65907,Meridian At Grosvenor Station,5230 Tuckerman Ln,Rockville,20852,146571,-77.10182219,39.02750085,6/15/2018,,3,1,301,79,0.2,0.29,66,0,0,compliant,"(39.0275, -77.1018)"
50690,"Garland Avenue, 8308",8308 Garland Ave,Takoma Park,20912,154051,-77.00061569,38.99365229,4/5/2019,,1,1,6,5,1.2,1.83,0,0.2,0,troubled,"(38.9937, -77.0006)"
17490,"Frederick Road, 25901",25901 Frederick Rd,Clarksburg,20871,148739,-77.31459718,39.28139379,7/2/2018,,3,1,2,2,0,0,0,0,0,compliant,"(39.2814, -77.3146)"
17242,Pine Ridge,8617 Piney Branch Rd,Silver Spring,20901,154230,-76.99949333,38.99647763,4/25/2019,,3,1,155,39,0.66,0.53,26,0,0,compliant,"(38.9965, -76.9995)"
18573,"Garland Avenue, 8102",8102 Garland Ave,Takoma Park,20912,139553,-76.9995391,38.99075009,3/30/2017,,3,1,3,4,0,0,1,0,0,compliant,"(38.9908, -76.9995)"
17396,Wellington Apartments,4800 Wellington Dr,Chevy Chase,20815,146176,-77.09359537,38.97900769,3/8/2018,,3,1,38,9,0.77,0.77,4,0,0.11,compliant,"(38.979, -77.0936)"
17197,Elizabeth House,1400 Fenwick Ln,Silver Spring,20910,153885,-77.03286303,38.9967708,4/18/2019,,3,1,160,37,1.18,1.05,16,0,0,compliant,"(38.9968, -77.0329)"
17270,Croydon Manor Apartments,104 Croydon Ct,Silver Spring,20901,139628,-77.01197357,39.00394021,4/26/2017,,3,1,96,25,1.4,1.13,9,0.16,0,compliant,"(39.0039, -77.012)"
70364,Argent Apartments,1200 Blair Mill Rd,Silver Spring,20910,149155,-77.02962349,38.98982655,8/6/2018,,3,1,96,25,1.12,1.3,9,0.04,0.16,compliant,"(38.9898, -77.0296)"
17321,"Greenwood Avenue, 8505",8505 Greenwood Ave,Takoma Park,20912,139522,-77.00128774,38.99538208,3/29/2017,,1,0,5,6,2.33,1.78,1,0,0,troubled,"(38.9954, -77.0013)"
18138,"Flower Avenue, 8413",8413 Flower Ave,Takoma Park,20912,138931,-77.00213218,38.99495926,4/11/2017,,1,0,6,7,7.85,1.87,0,0,0.14,troubled,"(38.995, -77.0021)"
17757,"Ruatan Street, 1058",1058 Ruatan St,Silver Spring,20903,150988,-76.9886486,38.9997692,10/30/2018,,1,1,4,5,4.4,1.9,0,0,0.4,troubled,"(38.9998, -76.9886)"
17303,Belvedere,2107 Belvedere Blvd,Silver Spring,20902,139625,-77.04491447,39.01947132,6/21/2017,,1,0,93,26,2.34,1.57,2,0.15,0,troubled,"(39.0195, -77.0449)"
17569,Victoria Apartment,10416 Fawcett St,Kensington,20895,152884,-77.07397418,39.0269891,1/29/2019,,3,1,10,10,0.8,0.97,4,0,0.1,compliant,"(39.027, -77.074)"
85492,Aurora Apartments At North Bethesda Center,5401 Mc Grath Blvd,Rockville,20852,146686,-77.10835668,39.04903286,4/25/2018,,3,1,341,85,0.14,0.21,74,0,0,compliant,"(39.049, -77.1084)"
17619,"Vassar Circle, 3",3 Vassar Cir,Glen Echo,20812,154651,-77.1439169,38.97072217,4/17/2019,,3,1,1,1,1,1,0,0,0,compliant,"(38.9707, -77.1439)"
17599,"Schrider Street, 8207",8207 Schrider St,Silver Spring,20910,141067,-77.01403118,38.99249825,5/30/2017,,3,1,4,4,0,0,4,0,0,compliant,"(38.9925, -77.014)"
79329,The Exchange At Wheaton Station,11215 Georgia Ave,Silver Spring,20902,149291,-77.05068732,39.03954926,9/11/2018,,3,1,484,113,0.31,0.36,92,0,0,compliant,"(39.0395, -77.0507)"
17009,"Greenwood Avenue, 8403",8403 Greenwood Ave,Takoma Park,20912,139512,-77.00096053,38.99426185,4/6/2017,,3,1,3,1,1,0,0,0,0,compliant,"(38.9943, -77.001)"
17510,Georgian Court,3600 Bel Pre Rd,Silver Spring,20906,144909,-77.07296714,39.09192199,1/16/2018,,3,1,147,41,0.53,0.49,25,0,0,compliant,"(39.0919, -77.073)"
17233,Spring Gardens East,8007 Eastern Ave,Silver Spring,20910,141075,-77.03133167,38.98829588,6/28/2017,,3,1,82,20,0.2,0.35,16,0,0,compliant,"(38.9883, -77.0313)"
17548,Paint Branch Park,12005 Old Columbia Pike,Silver Spring,20904,152164,-76.97471585,39.05344362,12/21/2018,,3,1,14,13,0.76,1.18,6,0,0,compliant,"(39.0534, -76.9747)"
17377,Newdale Mews,3943 Newdale Rd,Chevy Chase,20815,154237,-77.07816183,38.99433686,4/10/2019,,3,1,41,9,0.33,0.33,6,0,0,compliant,"(38.9943, -77.0782)"
17429,"Flower Avenue, 8627",8627 Flower Ave,Takoma Park,20912,138940,-77.00305062,38.99757585,4/3/2017,,1,0,5,5,2.6,2.23,0,0.4,0,troubled,"(38.9976, -77.0031)"
17726,"Glenville Road, 8810",8810 Glenville Rd,Silver Spring,20901,154056,-76.99707237,39.00017879,4/17/2019,,3,1,3,3,1.33,0.66,1,0,0,compliant,"(39.0002, -76.9971)"
79547,Citron Apartments,815 Pershing Dr,Silver Spring,20910,149958,-77.02366273,38.99773001,9/25/2018,,3,1,222,52,0.17,0.32,43,0,0,compliant,"(38.9977, -77.0237)"
17592,"Holsey Road, 9115",9115 Holsey Rd,Damascus,20872,154258,-77.18881588,39.31214384,3/25/2019,,3,1,2,2,0,0,4,0,0,compliant,"(39.3121, -77.1888)"
17380,Montgomery Towers,415 Silver Spring Ave,Silver Spring,20910,144030,-77.01110408,38.99327289,10/30/2017,,3,1,61,13,1.23,1.29,4,0,0,compliant,"(38.9933, -77.0111)"
17553,Shady Grove Apartments,16125 Crabbs Branch Way,Derwood,20855,146200,-77.15700506,39.11979875,3/14/2018,,3,1,144,33,0.06,-0.6,43,0,0,compliant,"(39.1198, -77.157)"
17318,Oxford Square,11902 Parklawn Pl,Rockville,20852,146564,-77.10213627,39.05118173,4/3/2018,,3,1,167,45,1.88,1.47,5,0,0,compliant,"(39.0512, -77.1021)"
17153,"Garland Avenue, 8310",8310 Garland Ave,Takoma Park,20912,139556,-77.00060868,38.99414103,4/21/2017,,1,0,6,5,2.4,1.75,0,0,0,troubled,"(38.9941, -77.0006)"
17684,"Garland Avenue, 7903",7903 Garland Ave,Takoma Park,20912,150993,-76.99791721,38.98881983,10/18/2018,,3,1,8,8,0.75,1.25,4,0,0.12,compliant,"(38.9888, -76.9979)"
17228,Topaz House,4400 East West Hwy,Bethesda,20814,147564,-77.08988428,38.98468322,7/18/2018,,3,1,360,90,0.13,0.21,80,0,0,compliant,"(38.9847, -77.0899)"
17614,Scotland Community,7838 Scotland Dr,Potomac,20854,146688,-77.15922075,39.0314794,4/27/2018,,3,1,75,19,0.26,0.37,16,0,0,compliant,"(39.0315, -77.1592)"
17345,"Ruatan Street, 1050",1050 Ruatan St,Silver Spring,20903,150985,-76.9892996,38.99941778,10/30/2018,,1,1,4,5,6.4,2.22,0,0.8,0.6,troubled,"(38.9994, -76.9893)"
84458,PerSei,900 Persei Pl,Rockville,20852,146572,-77.11680518,39.04983394,6/13/2018,,3,1,174,44,0.4,0.25,38,0.02,0,compliant,"(39.0498, -77.1168)"
17516,Lakeview House,10250 Westlake Dr,Bethesda,20817,146566,-77.15020415,39.02499963,4/19/2018,,3,1,152,39,0.61,0.88,21,0.05,0,compliant,"(39.025, -77.1502)"
17624,"Domer Avenue, 406",406 Domer Ave,Takoma Park,20912,153876,-77.00135817,38.99700481,4/1/2019,,3,1,2,3,0.33,0.33,2,0,0,compliant,"(38.997, -77.0014)"
17706,Blair Park,7721 Eastern Ave,Takoma Park,20912,138920,-77.02443147,38.98291232,2/22/2017,,3,1,52,50,0.42,0.56,33,0,0,compliant,"(38.9829, -77.0244)"
18019,"Easley Street, 731",731 Easley St,Silver Spring,20910,138927,-77.02088905,38.99445495,2/21/2017,,3,1,4,4,0.75,1.33,2,0,0,compliant,"(38.9945, -77.0209)"
17340,"Plymouth Street, 8714",8714 Plymouth St,Silver Spring,20901,141062,-77.00772713,39.0002994,6/22/2017,,3,1,6,6,0.33,0.5,3,0,0,compliant,"(39.0003, -77.0077)"
17529,"Prospect Street, 912",912 Prospect St,Takoma Park,20912,154233,-76.99825491,38.9897836,4/16/2019,,3,1,3,3,0,0,4,0,0,compliant,"(38.9898, -76.9983)"
18212,"Silver Spring Avenue, 611",611 Silver Spring Ave,Silver Spring,20910,135797,-77.01389751,38.99237472,7/28/2016,,3,0,4,6,2,1.33,2,0,0,compliant,"(38.9924, -77.0139)"
17963,"Flower Avenue, 8615",8615 Flower Ave,Takoma Park,20912,138938,-77.00296262,38.99716678,4/6/2017,,3,1,4,5,1.4,0.91,3,0,0,compliant,"(38.9972, -77.003)"
17299,Montgomery Gardens,7521 Blair Rd,Takoma Park,20912,152896,-77.022233,38.98160232,1/16/2019,,3,1,80,20,0.4,0.56,14,0,0.05,compliant,"(38.9816, -77.0222)"
16960,"Greenwood Avenue, 8309",8309 Greenwood Ave,Takoma Park,20912,152891,-77.00096052,38.99351502,1/23/2019,,3,1,4,1,2,1.5,0,0,0,compliant,"(38.9935, -77.001)"
17594,Montclair Apartments L P,3525 Sheffield Manor Ter,Silver Spring,20904,152885,-76.9339077,39.08013913,2/7/2019,,3,1,256,60,0.85,0.78,36,0,0.05,compliant,"(39.0801, -76.9339)"
17642,Crossway Community,3015 Upton Dr,Kensington,20902,146147,-77.06081429,39.04027188,4/6/2018,,3,1,37,38,0.26,0.42,29,0,0,compliant,"(39.0403, -77.0608)"
17575,Sandy Spring Meadows,1 Branchwood Ct,Sandy Spring,20860,152143,-77.02511362,39.15094549,1/17/2019,,3,1,55,13,0.76,0.58,9,0,0,compliant,"(39.1509, -77.0251)"
65836,"East West, 1200",1200 East West Hwy,Silver Spring,20910,147645,-77.03003192,38.99055127,6/19/2018,,3,1,247,63,0.5,0.8,34,0,0,compliant,"(38.9906, -77.03)"
18134,"Greenwood Avenue, 8201",8201 Greenwood Ave,Takoma Park,20912,139481,-77.00034827,38.99162047,4/19/2017,,3,1,3,4,1,1.5,0,0,0,compliant,"(38.9916, -77.0003)"
23359,Strathmore Court At White Flint,5440 Marinelli Rd,Rockville,20852,149967,-77.11024111,39.04721271,9/18/2018,,3,1,202,51,0.62,0.97,28,0,0.07,compliant,"(39.0472, -77.1102)"
17178,Montgomery Arms,8700 Colesville Rd,Silver Spring,20910,144026,-77.02769877,38.99832769,10/24/2017,,3,1,129,33,0.36,0.6,23,0,0,compliant,"(38.9983, -77.0277)"
17779,S Apartments,8710 Bradford Rd,Silver Spring,20901,139450,-77.00692833,38.99942631,3/23/2017,,3,1,6,1,2,1,0,0,0,compliant,"(38.9994, -77.0069)"
17200,Seneca Ridge,19568 Scenery Dr,Germantown,20876,146193,-77.23488749,39.17687198,5/2/2018,,3,1,71,19,1.42,1.01,6,0.05,0,compliant,"(39.1769, -77.2349)"
61941,Portico At Silver Spring Metro,1203 Fidler Ln,Silver Spring,20910,145346,-77.03037543,38.99580375,1/26/2018,,3,1,151,40,0.82,1.1,14,0,0.05,compliant,"(38.9958, -77.0304)"
17412,The Point At Silver Spring,8750 Georgia Ave,Silver Spring,20910,144009,-77.03174873,38.9982196,10/11/2017,,3,1,891,233,0.89,0.95,124,0.03,0.01,compliant,"(38.9982, -77.0317)"
17464,"Garland Avenue, 8307",8307 Garland Ave,Takoma Park,20912,151003,-77.00003868,38.99355619,10/25/2018,,3,1,6,6,0.5,1.16,3,0,0,compliant,"(38.9936, -77.0)"
47772,"Thayer Avenue, 746",746 Thayer Ave,Silver Spring,20910,138297,-77.02149725,38.99275797,1/9/2017,,3,1,2,2,0,0,2,0,0,compliant,"(38.9928, -77.0215)"
85739,The Residences At Thayer Avenue,814 Thayer Ave,Silver Spring,20910,148716,-77.02328107,38.9926945,7/6/2018,,3,1,52,13,0.38,0.41,10,0,0,compliant,"(38.9927, -77.0233)"
17236,Claridge House,2445 Lyttonsville Rd,Silver Spring,20910,153873,-77.05248887,38.9999172,4/9/2019,,3,1,241,61,1.49,1.37,22,0,0,compliant,"(38.9999, -77.0525)"
17966,"Schrider Street, 8215",8215 Schrider St,Silver Spring,20910,141069,-77.0140348,38.99289089,6/20/2017,,3,1,4,4,0.75,0.75,1,0,0,compliant,"(38.9929, -77.014)"
18209,"Garland Avenue, 7911",7911 Garland Ave,Takoma Park,20912,154047,-76.99834289,38.98937447,4/5/2019,,3,1,4,3,0,0,3,0,0,compliant,"(38.9894, -76.9983)"
17542,Great Hope Homes,1140 Good Hope Dr,Silver Spring,20905-6007,153706,-76.98895429,39.09224187,4/30/2019,,3,1,104,13,1.15,0.61,7,0,0,compliant,"(39.0922, -76.989)"
82907,Heritage At Silver Spring,8021 Georgia Ave,Silver Spring,20910,146674,-77.02592158,38.98778737,4/17/2018,,3,1,210,55,0.45,0.78,29,0,0,compliant,"(38.9878, -77.0259)"
44851,Barrington Apartments,1901 East West Hwy,Silver Spring,20910,146552,-77.04249468,38.99826288,5/30/2018,,3,1,415,214,1.34,1.22,75,0.07,0.04,compliant,"(38.9983, -77.0425)"
63144,Archstone Wisconsin Place,4440 Willard Ave,Chevy Chase,20815,154456,-77.08752753,38.96176858,5/22/2019,,3,1,432,112,0.2,1.18,52,0,0,compliant,"(38.9618, -77.0875)"
18208,"Greenwood Avenue, 8516",8516 Greenwood Ave,Takoma Park,20912,139525,-77.00219205,38.99627717,3/20/2017,,3,1,3,3,0.66,1,1,0,0,compliant,"(38.9963, -77.0022)"
111073,8513 Flower,8513 FLOWER AVE,TAKOMA PARK,20912,138935,0,0,4/5/2017,,1,0,3,5,8.4,1.71,0,0,0.2,troubled,"(0.0, 0.0)"
17155,Charter House,1316 Fenwick Ln,Silver Spring,20910,144869,-77.03130498,38.99729165,1/30/2018,,3,1,213,213,1.77,1.25,69,0.15,0,compliant,"(38.9973, -77.0313)"
17597,"Schrider Street, 8209",8209 Schrider St,Silver Spring,20910,141068,-77.01401717,38.99263828,5/30/2017,,3,1,4,4,0,0,4,0,0,compliant,"(38.9926, -77.014)"
52794,Cinnamon Run,14120 Weeping Willow Dr,Silver Spring,20906,144901,-77.06564945,39.08830481,3/8/2018,,3,1,511,130,1.23,1.09,47,0.02,0.03,compliant,"(39.0883, -77.0656)"
17610,"Glenville Road, 8802",8802 Glenville Rd,Silver Spring,20901,154054,-76.99737853,38.99982737,4/17/2019,,3,1,4,4,0,0,4,0,0,compliant,"(38.9998, -76.9974)"
96425,"Plymouth Street, 8707",8707 Plymouth St,Silver Spring,20901,154286,-77.00734702,38.9995059,4/9/2019,,3,1,6,6,1.5,1.29,1,0,0,compliant,"(38.9995, -77.0073)"
42734,Andrew Kim House,2100 Olney Sandy Spring Rd,Olney,20832,152167,-77.04367474,39.1441962,12/6/2018,,3,1,76,18,0,0,18,0,0,compliant,"(39.1442, -77.0437)"
17483,"Garland Avenue, 8101",8101 Garland Ave,Takoma Park,20912,151021,-76.998948,38.99059634,10/11/2018,,3,1,5,5,0,0,5,0,0,compliant,"(38.9906, -76.9989)"
21574,Eaves Washingtonian Center,0000 Marathon Cir.,Gaithersburg,20878,149256,0,0,10/10/2018,,3,1,287,72,0.7,0.96,39,0,0.02,compliant,"(0.0, 0.0)"
56268,Edgemont At Bethesda Metro,4903 Edgemoor Ln,Bethesda,20814,149955,-77.09775815,38.98512172,9/12/2018,,3,1,122,28,0.71,1,14,0,0,compliant,"(38.9851, -77.0978)"
17192,Northwest Park,475 Southampton Dr,Silver Spring,20903,151290,-76.98420969,39.00616404,10/31/2018,,3,1,747,722,1.55,1.23,286,0,0.03,compliant,"(39.0062, -76.9842)"
17767,"Patterson Court, 306",306 Patterson Ct,Takoma Park,20912,154288,-76.99664366,38.98751562,4/10/2019,,3,1,5,5,0.2,0.2,4,0,0,compliant,"(38.9875, -76.9966)"
74035,Albert Apartment,10422 Fawcett St,Kensington,20895,146493,-77.07391103,39.02717309,3/16/2018,,3,1,4,4,0.25,0.25,3,0,0,compliant,"(39.0272, -77.0739)"
17550,"Quebec Terrace, 1015",1015 Quebec Ter,Silver Spring,20903,138000,-76.98839516,39.00007944,12/14/2016,,1,0,4,5,2.6,2,0,0,0,troubled,"(39.0001, -76.9884)"
17617,Oaks At Four Corners,321 University Blvd W,Silver Spring,20901,147460,-77.01722685,39.02354112,6/13/2018,,3,1,120,30,0.1,0.1,29,0,0.03,compliant,"(39.0235, -77.0172)"
17523,Country Place Apartments,3900 Blackburn Ln,Burtonsville,20866,145355,-76.93081847,39.10474095,2/8/2018,,3,1,312,78,1.71,1.07,27,0,0.02,compliant,"(39.1047, -76.9308)"
18126,"Houston Avenue, 804",804 Houston Ave,Takoma Park,20912,139561,-77.00138267,38.99144198,4/6/2017,,3,1,3,3,0.33,1.33,1,0,0,compliant,"(38.9914, -77.0014)"
17772,"Glenville Road, 8812",8812 Glenville Rd,Silver Spring,20901,154057,-76.99700551,39.00026665,4/17/2019,,3,1,4,4,2,1.37,0,0,0,compliant,"(39.0003, -76.997)"
17974,Ken-Mil Apartments,9119 Manchester Rd,Silver Spring,20901,141002,-77.01170752,39.0043627,5/28/2017,,1,0,66,17,1.52,1.35,5,0.05,0.23,troubled,"(39.0044, -77.0117)"
17278,Glenmont Forest,2386 Glenmont Cir,Silver Spring,20902,146562,-77.04945791,39.05737677,6/11/2018,,3,1,480,105,1.09,0.99,50,0.01,0.01,compliant,"(39.0574, -77.0495)"
17422,The Willows,429 Diamond Ave W,Gaithersburg,20877,153860,-77.18747765,39.14149888,3/6/2019,,3,1,195,10,0.1,0.2,9,0,0,compliant,"(39.1415, -77.1875)"
17530,Magruders Discovery,10508 Westlake Dr,Bethesda,20817,146568,-77.14725465,39.0286108,5/17/2018,,3,1,134,35,1.22,1.3,8,0.02,0,compliant,"(39.0286, -77.1473)"
17498,"Long Branch Parkway, 7904",7904 Long Branch Pkwy,Takoma Park,20912,152162,-76.99587322,38.98760617,11/26/2018,,3,1,3,3,0,0,3,0,0,compliant,"(38.9876, -76.9959)"
17235,Silver Spring Towers,816 Easley St,Silver Spring,20910,144010,-77.02341512,38.99375429,10/19/2017,,3,1,432,96,0.83,1.38,48,0.02,0.03,compliant,"(38.9938, -77.0234)"
17688,"Garland Avenue, 8203",8203 Garland Ave,Takoma Park,20912,151018,-76.99937724,38.99203236,10/2/2018,,3,1,6,6,0.5,0.5,3,0,0,compliant,"(38.992, -76.9994)"
17467,"Bradford Road, 8701",8701 Bradford Rd,Silver Spring,20901,139631,-77.00667485,38.99846256,4/28/2017,,3,1,3,3,1,0.66,1,0,0,compliant,"(38.9985, -77.0067)"
17352,"Garland Avenue, 8309",8309 Garland Ave,Takoma Park,20912,151001,-77.00009143,38.99370998,10/25/2018,,3,1,6,6,0.33,0.33,5,0,0,compliant,"(38.9937, -77.0001)"
17789,"Dale Drive, 523",523 Dale Dr,Silver Spring,20910,140998,-77.01729464,39.00038075,6/16/2017,,3,1,4,1,0,0,0,0,0,compliant,"(39.0004, -77.0173)"
17600,"Glenview Avenue, 8514",8514 Glenview Ave,Takoma Park,20912,139557,-77.00044684,38.99649135,3/22/2017,,3,1,5,7,0.85,1,1,0,0,compliant,"(38.9965, -77.0004)"
17733,Oakfield Apartments - Phase II,2217 Georgian Way,Silver Spring,20902,147628,-77.0466155,39.05455999,8/3/2018,,3,1,371,90,0.41,0.53,63,0.02,0,compliant,"(39.0546, -77.0466)"
17603,"Greenwood Avenue, 8401",8401 Greenwood Ave,Takoma Park,20912,139489,-77.00096053,38.9941081,4/6/2017,,3,1,6,1,1,1,0,0,0,compliant,"(38.9941, -77.001)"
44983,Blair Towns,8201 16Th St,Silver Spring,20910,140489,-77.03455354,38.99195584,5/31/2017,,3,1,78,18,0.11,0.33,14,0,0,compliant,"(38.992, -77.0346)"
82513,Millstone At Kingsview,13611 Ale House Cir,Germantown,20874,147588,-77.28420316,39.15869624,7/19/2018,,3,1,195,48,0.39,0.63,34,0,0.02,compliant,"(39.1587, -77.2842)"
85104,Fenwick,8616 2Nd Ave,Silver Spring,20910,154224,-77.03429916,38.99707116,4/18/2019,,3,1,310,73,0.24,0.66,58,0,0,compliant,"(38.9971, -77.0343)"
80751,"Greenwood Ave, 8203",8203 Greenwood Ave,Takoma Park,20912,139468,-77.00040108,38.99183192,3/20/2017,,3,1,1,1,0,0,1,0,0,compliant,"(38.9918, -77.0004)"
17501,"Flower Avenue, 7817",7817 Flower Ave,Takoma Park,20912,138928,-77.00042566,38.98816364,4/5/2017,,1,0,2,7,12.85,2.09,0,0,0.28,troubled,"(38.9882, -77.0004)"
60561,"Hampden Street, 3901",3901 Hampden St,Kensington,20895,146491,-77.07792857,39.03139337,4/4/2018,,3,1,1,1,0,0,1,0,0,compliant,"(39.0314, -77.0779)"
17763,"Flower Avenue, 8503",8503 Flower Ave,Takoma Park,20912,139549,-77.00237495,38.99553033,3/23/2017,,3,1,6,6,1,0.75,3,0,0,compliant,"(38.9955, -77.0024)"
18568,Greenhills,10577 Tralee Ter,Damascus,20872,146578,-77.21528437,39.26973906,4/10/2018,,3,1,78,19,0.78,0.54,13,0,0,compliant,"(39.2697, -77.2153)"
17282,Tanglewood And Sligo LP,8902 Manchester Rd,Silver Spring,20901,146660,-77.01011209,39.00105478,5/2/2018,,3,1,132,33,0.66,0.71,19,0.06,0.03,compliant,"(39.0011, -77.0101)"
17255,Sumner Highlands,4507 Sangamore Rd,Bethesda,20816,154243,-77.11882212,38.94817226,4/17/2019,,3,1,125,29,0.34,0.6,21,0,0,compliant,"(38.9482, -77.1188)"
17627,Timberlawn Crescent,5707 Luxemburg St,Rockville,20852,154290,-77.11549242,39.03038302,4/19/2019,,3,1,107,24,0.2,0.27,21,0,0,compliant,"(39.0304, -77.1155)"
17686,"Ridge Road, 25930",25930 Ridge Rd,Damascus,20872,154281,-77.2121132,39.28248841,4/5/2019,,3,1,4,2,1,1,1,0,0,compliant,"(39.2825, -77.2121)"
17328,"Greenwood Avenue, 8210",8210 Greenwood Ave,Takoma Park,20912,139487,-77.00112584,38.99221631,4/6/2017,,3,1,6,6,0.16,0.16,5,0,0,compliant,"(38.9922, -77.0011)"
17645,University Gardens,440 University Blvd E,Silver Spring,20901,140497,-76.99808373,39.00757311,5/3/2017,,3,1,64,16,0,0,16,0,0,compliant,"(39.0076, -76.9981)"
17411,Glen Wood,4857 Battery Ln,Bethesda,20814,146538,-77.09776927,38.99322703,5/14/2018,,3,1,50,12,1.75,1.23,3,0,0.08,compliant,"(38.9932, -77.0978)"
17237,Wheaton House,10811 Georgia Ave,Silver Spring,20902,139452,-77.04839368,39.03225386,3/23/2017,,3,1,71,17,1.29,1.05,6,0.05,0,compliant,"(39.0323, -77.0484)"
17290,Barclay One Associates,4716 Bradley Blvd,Chevy Chase,20815,147566,-77.09329101,38.97760488,7/3/2018,,3,1,81,21,0.61,0.92,9,0,0.04,compliant,"(38.9776, -77.0933)"
17172,Twin Towers,1110 Fidler Ln,Silver Spring,20910,144013,-77.02924616,38.99626529,11/1/2017,,3,1,345,84,0.65,1.1,43,0,0.03,compliant,"(38.9963, -77.0292)"
17990,"Houston Avenue, 810",810 Houston Ave,Takoma Park,20912,139566,-77.00079865,38.99155734,3/21/2017,,3,1,3,3,0.66,1,0,0,0,compliant,"(38.9916, -77.0008)"
17525,"Plymouth Street, 8805",8805 Plymouth St,Silver Spring,20901,146629,-77.00691082,39.00078819,4/16/2018,,3,1,7,7,0.42,1,4,0,0,compliant,"(39.0008, -77.0069)"
18136,"Greenwood Avenue, 8404",8404 Greenwood Ave,Takoma Park,20912,139513,-77.00153756,38.99447601,4/6/2017,,3,1,4,1,1,1,0,0,0,compliant,"(38.9945, -77.0015)"
17519,Waverly House,4521 East West Hwy,Bethesda,20814,152163,-77.09222825,38.985431,12/4/2018,,3,1,158,39,0.28,0.37,32,0.02,0,compliant,"(38.9854, -77.0922)"
17680,Kensington Gardens,3403 University Blvd W,Kensington,20895,146157,-77.06836713,39.03526564,4/5/2018,,3,1,54,15,0.26,0.2,12,0,0,compliant,"(39.0353, -77.0684)"
17374,"Bradford Road, 8800",8800 Bradford Rd,Silver Spring,20901,139636,-77.00661171,39.00038732,3/23/2017,,3,1,6,7,1.57,1.36,2,0.14,0,compliant,"(39.0004, -77.0066)"
17020,"Greenwood Avenue, 8304",8304 Greenwood Ave,Takoma Park,20912,146190,-77.00148124,38.99307844,4/3/2018,,3,1,1,1,0,0,1,0,0,compliant,"(38.9931, -77.0015)"
17777,"Wabash Avenue, 907",907 Wabash Ave,Takoma Park,20912,138366,-77.0006157,38.99379784,1/17/2017,,3,1,6,6,1.5,0.94,3,0,0.16,compliant,"(38.9938, -77.0006)"
45214,Whitney At Bethesda Theatre,7707 Wisconsin Ave,Bethesda,20814,149265,-77.09469854,38.9869032,8/29/2018,,3,1,253,58,0.08,0.19,54,0,0,compliant,"(38.9869, -77.0947)"
57228,"Erie Avenue, 910",910 Erie Ave,Takoma Park,20912,151446,-76.99960241,38.99011036,10/4/2018,,3,1,2,2,0,0,2,0,0,compliant,"(38.9901, -76.9996)"
17583,"Howard Avenue, 3738",3738 Howard Ave,Kensington,20895,145337,-77.07324577,39.02722568,1/19/2018,,3,1,6,6,1.66,1.13,2,0,0.16,compliant,"(39.0272, -77.0732)"
17811,"Georgia Avenue, 9435",9435 Georgia Ave,Silver Spring,20910,141001,-77.04047543,39.00936335,6/2/2017,,3,1,6,6,1,1.22,2,0,0,compliant,"(39.0094, -77.0405)"
17635,Aspenwood,14400 Homecrest Rd,Silver Spring,20906,140487,-77.06281494,39.09140999,5/19/2017,,3,1,85,16,0.37,0.62,11,0,0,compliant,"(39.0914, -77.0628)"
17693,"Greenwood Avenue, 7815",7815 Greenwood Ave,Takoma Park,20912,138941,-76.99938075,38.98811971,3/9/2017,,1,0,6,6,2.33,1.6,1,0,0.16,troubled,"(38.9881, -76.9994)"
17330,"Ruatan Street, 1056",1056 Ruatan St,Silver Spring,20903,154284,-76.98882807,38.99967311,4/26/2019,,3,1,4,5,1.4,1.45,2,0,0,compliant,"(38.9997, -76.9888)"
73130,Lorraine,3923 Plyers Mill Rd,Kensington,20895,146492,-77.07762796,39.030158,4/12/2018,,3,1,5,6,0,0,6,0,0,compliant,"(39.0302, -77.0776)"
17386,"Quebec Terrace, 1005-07-09",1005 Quebec Ter,Silver Spring,20903,139437,-76.98912357,38.99983514,3/23/2017,,1,0,12,12,3.16,2.15,0,0.08,0.08,troubled,"(38.9998, -76.9891)"
17274,Windsor Court/Windsor Towers,13802 Castle Blvd,Silver Spring,20904,144918,-76.94455298,39.0820789,2/21/2018,,3,1,457,241,1.75,1.32,75,0.11,0.04,compliant,"(39.0821, -76.9446)"
82884,The Premier,8711 Georgia Ave,Silver Spring,20910,146673,-77.02976077,38.99839308,5/23/2018,,3,1,160,40,0.27,0.38,31,0,0,compliant,"(38.9984, -77.0298)"
17494,"Kennebec Avenue, 805",805 Kennebec Ave,Takoma Park,20912,138346,-77.00027793,38.99008015,1/25/2017,,3,1,3,3,0.33,0.66,2,0,0,compliant,"(38.9901, -77.0003)"
17457,"Greenwood Avenue, 8107",8107 Greenwood Ave,Takoma Park,20912,139477,-77.00002457,38.9909066,11/2/2017,,3,1,5,5,0,0,5,0,0,compliant,"(38.9909, -77.0)"
17281,Metro 710,710 Roeder Rd,Silver Spring,20910,144028,-77.02508097,38.99844363,11/1/2017,,3,1,104,25,0.88,1.17,10,0,0,compliant,"(38.9984, -77.0251)"
17398,"Carleton, The",4740 Bradley Blvd,Chevy Chase,20815,149959,-77.09424429,38.97761784,10/5/2018,,3,1,100,23,0.26,0.17,20,0,0,compliant,"(38.9776, -77.0942)"
17458,"Kennebec Avenue, 806",806 Kennebec Ave,Takoma Park,20912,138343,-77.00057348,38.99045903,1/13/2017,,3,1,4,4,0.25,0.75,3,0,0,compliant,"(38.9905, -77.0006)"
17307,"Garland Avenue, 8215",8215 Garland Ave,Takoma Park,20912,151792,0,0,11/8/2018,,1,1,4,5,1,2,0,0,0.2,troubled,"(0.0, 0.0)"
78742,Victory Oaks At St. Camillus,721 Beacon Rd,Silver Spring,20903,153862,-76.98235812,39.00996865,4/8/2019,,3,1,49,13,0,0,13,0,0,compliant,"(39.01, -76.9824)"
17514,9439 L L C,9437 Georgia Ave,Silver Spring,20910,139624,-77.04048278,39.00938351,3/23/2017,,3,1,8,8,2,0.65,5,0,0,compliant,"(39.0094, -77.0405)"
17186,Blair East,1220 East West Hwy,Silver Spring,20910,144011,-77.03083095,38.99151759,10/9/2017,,3,1,401,100,0.66,0.67,64,0,0.06,compliant,"(38.9915, -77.0308)"
17450,"Patterson Court, 304",304 Patterson Ct,Takoma Park,20912,138303,-76.99640094,38.9872822,1/23/2017,,3,1,3,3,0,0,3,0,0,compliant,"(38.9873, -76.9964)"
18243,Hamptons Phase I,19773 Crystal Rock Dr,Germantown,20874,146577,-77.26192142,39.18057265,5/23/2018,,3,1,288,85,1.45,1.21,25,0.02,0.04,compliant,"(39.1806, -77.2619)"
18151,Strathmore Apartments #2,7039 Strathmore St,Chevy Chase,20815,138948,-77.09298424,38.97976874,2/15/2017,,3,1,4,2,1,1,0,0,0,compliant,"(38.9798, -77.093)"
17526,"Greenwood Avenue, 8408",8408 Greenwood Ave,Takoma Park,20912,139517,-77.00162903,38.99477527,4/6/2017,,3,1,5,1,2,1.5,0,0,0,compliant,"(38.9948, -77.0016)"
17370,"Philadelphia Avenue, 817",817 Philadelphia Ave,Silver Spring,20910,154226,-77.02241744,38.98754096,3/28/2019,,3,1,4,4,0.25,0.25,3,0,0,compliant,"(38.9875, -77.0224)"
17648,"Clayborn Avenue, 405",405 Clayborn Ave,Takoma Park,20912,139536,-77.00061924,38.99469018,3/28/2017,,3,1,4,4,0.5,0.5,3,0,0,compliant,"(38.9947, -77.0006)"
17744,"Greenwood Avenue, 8220",8220 Greenwood Ave,Takoma Park,20912,138943,-77.00116101,38.99244143,2/23/2017,,1,0,5,5,3.2,2,0,0,0.2,troubled,"(38.9924, -77.0012)"
17650,"Glen, The",2399 Jones Ln,Silver Spring,20902,153855,-77.04987524,39.05365307,4/22/2019,,3,1,90,11,0.27,0.15,10,0,0,compliant,"(39.0537, -77.0499)"
17385,Oak Hill Apartments,11497 Columbia Pike,Silver Spring,20904,144904,-76.98678064,39.04615897,1/18/2018,,3,1,280,77,1.46,1,32,0.07,0.02,compliant,"(39.0462, -76.9868)"
17167,Randolph Square,5307 Randolph Rd,Rockville,20852,154216,-77.10541038,39.05446025,4/9/2019,,3,1,118,29,0.96,1.19,7,0,0,compliant,"(39.0545, -77.1054)"
17204,"Seasons, The",4710 Bethesda Ave,Bethesda,20814,147515,-77.09383334,38.98074554,8/9/2018,,3,1,247,61,0.5,0.66,40,0,0.01,compliant,"(38.9807, -77.0938)"
17449,"Greenwood Circle, 812",812 Greenwood Cir,Takoma Park,20912,139528,-77.00133694,38.99174953,3/30/2017,,3,1,6,6,0,0,6,0,0,compliant,"(38.9917, -77.0013)"
17601,"Greenwood Circle, 816",816 Greenwood Cir,Takoma Park,20912,139530,-77.00147414,38.99208452,3/30/2017,,3,1,6,6,0,0,6,0,0,compliant,"(38.9921, -77.0015)"
17708,"Houston Avenue, 805",805 Houston Ave,Takoma Park,20912,139562,-77.00114694,38.99100546,3/16/2017,,3,1,4,5,0.2,0.8,3,0,0,compliant,"(38.991, -77.0011)"
17539,Victory Forest Apartments,10000 Brunswick Ave,Silver Spring,20910,144021,-77.0572447,39.01991734,10/18/2017,,3,1,181,46,0.69,0.71,30,0.06,0,compliant,"(39.0199, -77.0572)"
17306,"Bonifant Street, 937",937 Bonifant St,Silver Spring,20910,143627,-77.02526948,38.99422068,9/22/2017,,3,1,2,2,0,0,2,0,0,compliant,"(38.9942, -77.0253)"
17232,Rock Creek Springs,8000 Eastern Dr,Silver Spring,20910,154278,-77.03221427,38.9890639,7/5/2019,,3,1,215,50,0.66,0.77,28,0,0,compliant,"(38.9891, -77.0322)"
17717,"Garland Avenue, 7814",7814 Garland Ave,Takoma Park,20912,148715,-76.99830073,38.9882652,7/18/2018,,3,1,1,2,0,0,2,0,0,compliant,"(38.9883, -76.9983)"
44507,"Erie Avenue, 904",904 Erie Ave,Takoma Park,20912,153886,-76.9999261,38.98983302,3/15/2019,,3,1,1,1,0,0,1,0,0,compliant,"(38.9898, -76.9999)"
17260,Aspen Hill Apartments,13515 Georgia Ave,Silver Spring,20906,144893,-77.07014321,39.07942551,12/20/2017,,3,1,202,54,1.9,1.19,13,0.07,0,compliant,"(39.0794, -77.0701)"
17521,Chelsea Tower,7401 Westlake Ter,Bethesda,20817,148737,-77.15191302,39.02744107,7/13/2018,,3,1,21,4,1.25,1.05,1,0,0,compliant,"(39.0274, -77.1519)"
17540,Bauer Park,14635 Bauer Dr,Rockville,20853,149962,-77.10873082,39.09579304,9/4/2018,,3,1,142,34,0.14,0.17,29,0,0,compliant,"(39.0958, -77.1087)"
18237,Tamarron Apartments,18101 Marksman Cir,Olney,20832,146201,-77.06103857,39.15502875,5/10/2018,,3,1,132,38,0.07,0.15,36,0,0.02,compliant,"(39.155, -77.061)"
17456,"Thayer Avenue, 809",809 Thayer Ave,Silver Spring,20910,138953,-77.02286961,38.99336728,3/8/2017,,1,0,3,4,1.5,3.4,0,0,0.25,troubled,"(38.9934, -77.0229)"
17517,"Ridge Drive, 6366, 6368 And 6370",6366 Ridge Dr,Bethesda,20816,150075,-77.12159998,38.94211058,9/13/2018,,3,1,3,3,1.33,1,1,0,0,compliant,"(38.9421, -77.1216)"
17492,"Greenwood Avenue, 8409",8409 Greenwood Ave,Takoma Park,20912,139518,-77.00111183,38.9947231,3/30/2017,,3,1,3,3,0,0,3,0,0,compliant,"(38.9947, -77.0011)"
17258,Manchester Manor,8401 Manchester Rd,Silver Spring,20901,154287,-77.00515122,38.99760051,4/9/2019,,3,1,53,14,1.78,1.4,2,0,0,compliant,"(38.9976, -77.0052)"
38226,Corrigan Square,8511 Snouffer School Rd,Gaithersburg,20879,153869,-77.17521086,39.16834027,3/11/2019,,3,1,106,7,0,0,7,0,0,compliant,"(39.1683, -77.1752)"
16959,"Flower Avenue, 8501",8501 Flower Ave,Takoma Park,20912,138933,-77.00231517,38.99538482,5/15/2017,,3,1,4,4,1,1.31,1,0,0,compliant,"(38.9954, -77.0023)"
17951,"Prospect Street, 908",908 Prospect St,Takoma Park,20912,139621,-76.99891987,38.98954472,3/21/2017,,1,0,4,4,3.75,1.55,1,0,0,troubled,"(38.9895, -76.9989)"
36446,Hughes House,10720 Georgia Ave,Silver Spring,20902,146616,-77.04878042,39.0311593,5/18/2018,,3,1,23,21,0.14,0.22,19,0,0,compliant,"(39.0312, -77.0488)"
17466,"Garland Avenue, 8306",8306 Garland Ave,Takoma Park,20912,151012,-77.00061569,38.99351226,10/22/2018,,3,1,6,7,1.85,0.87,3,0,0,compliant,"(38.9935, -77.0006)"
17994,Montgomery Trace Apartments,14114 Grand Pre Rd,Silver Spring,20906,146682,-77.07428814,39.08699773,5/25/2018,,3,1,192,48,0.56,0.56,32,0,0,compliant,"(39.087, -77.0743)"
17266,Pooks Hill Towers,3 Pooks Hill Rd,Bethesda,20814,143400,-77.10548046,39.01383783,9/7/2017,,3,1,239,47,0.78,1.17,24,0,0.02,compliant,"(39.0138, -77.1055)"
24024,Milestone Apartments,12526 Great Park Cir,Germantown,20876,147646,-77.25639901,39.20162789,7/19/2018,,3,1,574,136,0.94,0.84,80,0,0.03,compliant,"(39.2016, -77.2564)"
45694,Hampshire Village,3210 Norbeck Rd,Silver Spring,20906,144903,-77.06517696,39.11095112,11/14/2017,,3,1,110,28,0.6,1.03,16,0,0,compliant,"(39.111, -77.0652)"
43262,"Moore Road, 17320",17320 Moore Rd,Boyds,20841,154463,-77.36482026,39.16843025,3/29/2019,,3,1,2,2,0,0,2,0,0,compliant,"(39.1684, -77.3648)"
26019,"Metropolitan, The",7620 Old Georgetown Rd,Bethesda,20814,147573,-77.09684774,38.98568536,6/22/2018,,3,1,308,76,0.55,0.57,48,0,0,compliant,"(38.9857, -77.0968)"
17590,Apartments At Miramont,6040 California Cir,Rockville,20852,146684,-77.1251436,39.05646987,5/24/2018,,3,1,299,75,0.81,1.28,19,0,0.02,compliant,"(39.0565, -77.1251)"
17602,"Garland Avenue, 8313",8313 Garland Ave,Takoma Park,20912,151005,-77.00010907,38.99403397,10/25/2018,,3,1,6,6,0.83,0.66,2,0,0,compliant,"(38.994, -77.0001)"
17166,Triangle Towers,4853 Cordell Ave,Bethesda,20814,147557,-77.0974307,38.99011244,6/29/2018,,3,1,258,65,0.55,0.65,43,0,0,compliant,"(38.9901, -77.0974)"
18570,8600 Apartments,8600 16Th St,Silver Spring,20910,144023,-77.04081339,38.99931505,11/8/2017,,3,1,172,49,0.44,-0.24,55,0.04,0.02,compliant,"(38.9993, -77.0408)"
61121,Wentworth House Apartments,5411 Mcgrath Blvd,Rockville,20852,146199,-77.10893141,39.04962189,3/22/2018,,3,1,312,78,0.42,0.65,52,0,0.03,compliant,"(39.0496, -77.1089)"
17444,Nolte Avenue Apartments,8200 Nolte Ave,Silver Spring,20910,139435,-77.01354219,38.99272347,3/24/2017,,3,1,15,14,1,0.96,4,0,0,compliant,"(38.9927, -77.0135)"
17305,Silver Spring/Nolte II,610 Silver Spring Ave,Silver Spring,20910,142400,-77.01358075,38.99191622,8/17/2017,,3,1,15,15,0.26,0.26,11,0,0,compliant,"(38.9919, -77.0136)"
23360,"Bradford Road, 8804",8804 Bradford Rd,Silver Spring,20901,140994,-77.00650617,39.00071132,6/23/2017,,1,1,6,5,3.8,1.73,0,0.2,0.2,troubled,"(39.0007, -77.0065)"
17459,"Houston Avenue, 808",808 Houston Ave,Takoma Park,20912,154300,0,0,4/23/2019,,3,1,3,3,0,0,3,0,0,compliant,"(0.0, 0.0)"
17497,Northgate,14200 Grand Pre Rd,Silver Spring,20906,144914,-77.07649101,39.08920427,1/2/2018,,3,1,250,61,1.21,1.07,22,0,0.01,compliant,"(39.0892, -77.0765)"
17689,"Greenwood Avenue, 8108",8108 Greenwood Ave,Takoma Park,20912,139478,-77.00067196,38.99083523,3/20/2017,,3,1,6,5,0.4,0.8,3,0,0,compliant,"(38.9908, -77.0007)"
17253,White Oak Towers,11700 Old Columbia Pike,Silver Spring,20904,144806,-76.98058154,39.04849885,1/24/2018,,3,1,414,101,1.12,1.06,41,0.04,0.02,compliant,"(39.0485, -76.9806)"
18159,"Greenwood Avenue, 8501",8501 Greenwood Ave,Takoma Park,20912,139521,-77.0012279,38.9951075,3/6/2017,,3,1,3,3,0.33,1,2,0,0,compliant,"(38.9951, -77.0012)"
17768,"Greenwood Avenue, 8109",8109 Greenwood Ave,Takoma Park,20912,139479,-77.00007738,38.99106036,9/27/2017,,3,1,4,3,0,0,2,0,0,compliant,"(38.9911, -77.0001)"
17541,"Schrider Street, 8217",8217 Schrider St,Silver Spring,20910,141070,-77.01417555,38.99302266,5/25/2017,,3,1,5,5,0,0,5,0,0,compliant,"(38.993, -77.0142)"
17264,The Monterey,5901 Montrose Rd,Rockville,20852,147618,-77.11905435,39.05353559,7/10/2018,,3,1,432,89,0.58,0.73,55,0.01,0.01,compliant,"(39.0535, -77.1191)"
51544,Residences At Rio,9890 Washingtonian Blvd,Gaithersburg,20878,145352,-77.20046197,39.11612153,2/23/2018,,3,1,136,35,0.37,1.05,15,0,0,compliant,"(39.1161, -77.2005)"
17432,"Garland Avenue, 8207",8207 Garland Ave,Takoma Park,20912,151019,-76.99950038,38.99230417,10/2/2018,,3,1,3,3,0.33,0.33,2,0,0,compliant,"(38.9923, -76.9995)"
17695,"Silver Spring Avenue, 622",622 Silver Spring Ave,Silver Spring,20910,142397,-77.0147523,38.99175685,7/27/2017,,3,1,5,5,0,0,5,0,0,compliant,"(38.9918, -77.0148)"
17971,"Hampden Lane, 4909",4909 Hampden Ln,Bethesda,20814,146551,-77.09676654,38.98289576,4/13/2018,,3,1,6,7,0.57,0.71,2,0,0,compliant,"(38.9829, -77.0968)"
18130,Spring Parc Apartments,11 Featherwood Ct,Silver Spring,20904,144892,-76.97212474,39.05876998,1/17/2018,,3,1,400,103,1.65,1.1,28,0.01,0,compliant,"(39.0588, -76.9721)"
17319,"Greenwood Avenue, 8407",8407 Greenwood Ave,Takoma Park,20912,139516,-77.0009711,38.99453915,4/6/2017,,3,1,3,1,1,1,0,0,0,compliant,"(38.9945, -77.001)"
17162,Hermitage Square,3213 Hewitt Ave,Silver Spring,20906,138321,-77.0643646,39.0798188,1/27/2017,,3,1,131,20,1.05,1.32,5,0,0.05,compliant,"(39.0798, -77.0644)"
48335,The Flats At Wheaton Stations,11101 Georgia Ave,Silver Spring,20902,149266,-77.04960092,39.03659267,8/29/2018,,3,1,243,25,0.56,0.92,13,0,0,compliant,"(39.0366, -77.0496)"
17489,"Prospect Street, 918",918 Prospect St,Takoma Park,20912,154234,-76.99806492,38.9898138,4/8/2019,,3,1,2,2,0,0,2,0,0,compliant,"(38.9898, -76.9981)"
84867,The George,11141 Georgia Ave,Silver Spring,20902,154465,-77.04990803,39.03782258,5/7/2019,,3,1,194,42,0.14,0.15,37,0,0,compliant,"(39.0378, -77.0499)"
17006,"Greenwood Avenue, 8509",8509 Greenwood Ave,Takoma Park,20912,139524,-77.00145315,38.99568686,3/27/2017,,3,1,1,1,0,0,1,0,0,compliant,"(38.9957, -77.0015)"
17580,Avenel Gardens,10100 Avenel Gardens Ln,Silver Spring,20903,140488,-76.97187719,39.02058694,5/25/2017,,3,1,20,11,1.27,1,5,0.09,0,compliant,"(39.0206, -76.9719)"
17613,"Clayborn Avenue, 403",403 Clayborn Ave,Takoma Park,20912,139535,-77.000862,38.99471762,3/24/2017,,3,1,4,4,0.5,0.37,3,0,0,compliant,"(38.9947, -77.0009)"
